scrape_city_id,scrape_city_name,oyo_id,name,city,address,rating,price,latitude,longitude
168,Agartala,79924,Hotel O K K Tower,,"TMC Road, Hapania, Near Tripura Medical College, Agartala",,,23.7857802,91.2606818
23,Agra,223429,Super Townhouse Taj Mahal East Gate Formerly Royal Empire,,"Taj Nagri Phase 2, Tajganj, Basai, Agra",,,27.1516096,78.0600336
23,Agra,355828,Hotel O Shiv Shankar ,,"M-128 M-128 Tedi Bagiya Hathras Road Near Rambagh Choraha, Agra",,,27.2274706,78.048065
23,Agra,285591,Super Townhouse Taj Nagri Phase 2 Formerly Grand Rivera,,"Taj Nagri Phase 2, Fatehabad Road, Agra",,,27.15416,78.054268
23,Agra,301145,Super Collection O Tajganj West Gate Formerly Hotel Host,,"Katra Umar Khan, West Gate Taj Mahal, Kinari Bazar, Kaserat Bazar, Tajganj, Agra",,,27.169693,78.040589
23,Agra,298692,Hotel O Tridev Agra,,"E48  Plot no.- 36/228D, Dayalbagh Road, Dayalbagh, Agra, Pin code- 282005, Nearby Landmark- Opposite Singhal Medical Store, Agra",,,27.2142327,78.0061594
23,Agra,16399,Hotel O Taj Nagri Near Taj Mahal East Gate Formerly Riviera,,"Taj Nagri Phase 3, Near Taj East Gate Metro Station, Fatehabad Road, Agra",,,27.159818,78.056186
23,Agra,18096,Palette - Dayal Lodge - A Boutique Hotel,,"Dayal Bagh Rd, Nagla Padi, Indra Puri, New Agra Colony, Agra, Uttar Pradesh, Agra",,,27.212621543445536,78.00544375553727
23,Agra,13422,Capital O Taj Castle,,"Fatehabad Road Station, SH62, Taj Ganj, Agra, Uttar Pradesh, India, Agra",,,27.157526,78.048171
23,Agra,74016,Hotel O Salt And Pepper Hotel And Resturant,,"Taj Expressway Link Rd, near Sahadra, near Prachin Pathwari Mandir, Sahadra, T.Y.C. Phase-II, Agra, Uttar Pradesh, Agra",,,27.2061342,78.0602319
23,Agra,82643,Hote O Star Shiv Shankar,,"3/F, Tedi Bagia, Hathras RoadNear Ram Bagh Crossing, Hathras Road, AgraNear Ram Bagh Crossing, Hathras Road, AgraNear Ram Bagh Crossing, Hathras Road, Agra, Agra",,,27.2288033,78.0487054
23,Agra,49150,Hotel O D' Seasons Agra Cantt Railway Station,,"Durga Complex, Shaheed Nagar, Near Upadhyay Hospital, Agra.Near Shaheed Nagar, Upadhyay Hospital, Agra, Agra",,,27.1554558,78.0349122
23,Agra,307992,Collection O Taj Viewpoint Agra,,"Taj Nagari, Phase 1, Shilpgram, Agra",,,27.1656389,78.0544167
23,Agra,325888,Hotel O by OYO Luxe Paradise,,"Behind CNG Pump, Near Pathak Hospital, Agra",,,27.1538422,78.0555279
23,Agra,319066,[Day Stay - 12 Hrs Slot : 8 AM to 8 PM] Hotel O Taj Mahal Metro Station,,"Katra Umar Khan, Kinari Bazar, Kaserat Bazar, Agra",,,27.1696964,78.0405979
23,Agra,48889,Hotel O Gayatri Palace,,"Plot number HIG 1, Fatehabad Rd, Near Radisson Hotel, Taj Nagari, Phase 1, Basai Khurd, Tajganj, Agra",,,27.1602571,78.0540132
23,Agra,197624,Hotel O Vintage House,,"Fatehabad Rd, Opposite Saga Emporium, Tajganj, Agra, Basai, Uttar Pradesh, Agra",,,27.1577649,78.0480925
23,Agra,360159,Hotel O Shiv Palace ,,"26  01, Padam vihar colony nikat rambal nagala mauja naraich, Landmark- Opposite Kalindi plaza nagala rambal road, Agra",,,27.2124087,78.0657222
23,Agra,206886,Live as AGR351,,"  NH-2, Arsena, Oppst  - Keetham Lake, Agra",,,27.1331457,78.0556757
23,Agra,110534,Hotel O Ansh Palace,,"Baroli aheer, Dhandhupura road karbhna, Tajganj, Agra",,,15.259032,73.926367
23,Agra,355781,HOTEL O HONEY,,"Flat no.-13A/605/1 sahadara, chungi, rambagh, firozabad road, Agra, Agra",,,27.2114815,78.0682826
23,Agra,359918,Hotel O Shalimar Home Stay ,," Plot no.- 59/164, Block- B/2, VIP Road, Kheria Mod, Nearby Landmark- V-MART mall and Agra cantt railway station, Airport, Agra",,,27.1624006,77.986075
23,Agra,304435,Collection O Taj Nagri Phase 2,,"Taj Nagri, Phase 2, Fatehabad Road, Agra",,,27.154209,78.054315
23,Agra,304446,[Day Stay - 12 Hrs Slot: 8 AM to 8 PM] Collection O Agra TDI Mall,,"Near Taj East Gate Metro Station, Agra",,,27.159703,78.056164
23,Agra,307151,Collection O Taj Nagri Basai,,"Taj Nagri Phase 2, Tajganj, Basai, Agra",,,27.093938,78.063498
23,Agra,317433,[Day Stay - 12 Hrs Slot: 8 AM to 8 PM] Hotel O Tourist Complex Area,,"Besides Fatehabad Road, Bansal Nagar, Agra",,,27.1611746,78.0359213
17,Ahmedabad,227604,Super Hotel O Nana Chiloda Near Airport Formerly Green Valley,,"Atlanta Business Hub, Near Airport, Gift City - Naroda Road, S.P. Ring Road Circle, Nana Chiloda, Ahmedabad",,,23.1102513,72.67387830000001
17,Ahmedabad,79479,Clubhouse Nami Residency-Sabarmati Riverfront,,"Opp V S Hospital, Ellisbridge, Ashram Road, Madalpur Gam, Paldi, Ahmedabad",,,23.021035217415225,72.57017774660972
17,Ahmedabad,100265,Super Collection O Airport Road Formerly Hotel Kyra,,"Gandhinagar Road, Indira Bridge Circle, Hansol, Airport Road, Ahmedabad",,,23.0859861,72.6307464
17,Ahmedabad,252858,Super Collection O Maninagar Formerly Park Land,,"Opp. Maninagar Railway Crossing, Near Railway station, C.T.M Express Highway to Kankaria Lake Road, Maninagar, Ahmedabad",,,22.9954714,72.6126335
17,Ahmedabad,115230,Hotel O Rudra Palace,,"Hotel Rudra Palace, New York Trade Center, B S G Highway, Ahmedabad",,,23.0531004,72.5191464
17,Ahmedabad,1306,Townhouse Prahladnagar,,"1st Floor, Avadh Arcade, 132 Ft. Ring Road Opposite Jivraj Park, Near Police Choki Vejalpur, Ahmedabad",,,23.00047,72.536184
17,Ahmedabad,2948,Super Hotel O Jamalpur Ahmedabad Formerly Hotel Peace,,"3rd Floor, Ashrafi Complex, Opposite Sardar Patel Market, Jamalpur, Ahmedabad",,,23.0100434,72.5798001
17,Ahmedabad,111911,Collection O Maninagar East Formerly Maninagar Residency,,"DK Complex, Near Kashivishvanath Mahadev, Maninagar, Ahmedabad",,,22.995071,72.615208
17,Ahmedabad,243293,Collection O Odhav Circle Formerly Hotel New Balaji,,"Dhaval Estate, SP Ring Road, Nikol, Odhav, Ahmedabad",,,23.031577,72.675523
17,Ahmedabad,2896,Super Hotel O Vibrant Residency,,"Near Goyal Intercity And Vaibhav Laxmi Temple, Thaltej, Ahmedabad",,,23.050844,72.527675
17,Ahmedabad,45413,Super Hotel O Vatva Railway Station Formerly Anmol Palace,,"1st Floor, Ambica Mill Compound, Near Durga Nagar, Vatva, Ahmedabad",,,22.9675602,72.6248712
17,Ahmedabad,305061,Super Hotel O Dream Space,,"4th Floor, Neelakanth plaza, opp. New Madhavpura Market 4th Floor, Neelakanth plaza, opp. New Madhavpura Market Doctor Ambedkar Road, Jain Colony, Shahibag, Ahmedabad, Ahmedabad",,,23.0483676,72.5898108
17,Ahmedabad,187771,Hotel O New York,,"3rh floor, Narayan Arcade, Opp Gokulesh Petrol Pump, Near Shahwadi Bus Stop, Narol,, Ahmedabad, India , Ahmedabad",,,22.9668026,72.5885757
17,Ahmedabad,226914,Hotel O bhanu Villa,,"2nd floor, Sun Plaza, Nr. Fastrack Show Room, Swastik Cross Road, Navrangpura, Ahmedabad",,,23.037277,72.5604933
17,Ahmedabad,40568, Hotel O Swell,,"4th Floor, Smitdhara Complex Center, Opp Hero Showroom, Vijay Charrasta, Commerce College Rd, Ahmedabad, 380009, Ahmedabad, India, Ahmedabad",,,23.042056,72.550532
17,Ahmedabad,168469,Hotel O R S Palace,,"Above Deepak Medicals, Opposite Sardar Patel Stadium Road, Navrangpura, Ahmedabad",,,23.040137,72.56373
17,Ahmedabad,218364,Hotel O Raj Palace,,"D/1, Shree Ghantakarna Mahavir Market, Sarangpur Near New Cloth Market, Ahmedabad",,,23.0194516,72.5993353
17,Ahmedabad,983,Palette River Front Railway Station Formerly Host Inn,,"Near Nehru Bridge, Khanpur, Ahmedabad",,,23.0292213,72.57757219999999
17,Ahmedabad,209987,Hotel O by OYO Reet Villa,,"5/A, Opp. Sports Club, Sardar Patel Stadium Road, Nr. Stadium Circle, Navrangpura, Ahmedabad, Ahmedabad",,,23.040969,72.563263
17,Ahmedabad,171791,Hotel O N Y,,"N Y Square, N R Savvy Swaraj, Vandematram, Gota, Ahmedabad",,,23.0983632,72.5518096
17,Ahmedabad,1547,Hotel O Keshav,,"Near Swastik Char Rasta, Navrangpura, CG Road, Ahmedabad",,,23.037880490317164,72.56152303889394
17,Ahmedabad,355827,Collection O Hotel Orange Tree,,"4th Floor, Block B, Swami Narayan Avenue 4th Floor, Block B, Swami Narayan Avenue AEC Char Rasta, Naranpura, Ahmedabad",,,23.053485,72.547409
17,Ahmedabad,242539,Super Hotel O by OYO SR Farm,,"E-2 E-2, Prathana Upvan Road, Ghuma, Ahmedabad, Gujarat, Near- Jaldhara-3, Ahmedabad",,,23.042473549572204,72.438720810882
17,Ahmedabad,112731,Hotel O Maple view,,"4th floor, Neelkanth paradise, nr.Galaxy Cinema, Naroda, Ahmedabad",,,23.0777722,72.6537039
17,Ahmedabad,234118,Hotel O Angel Park,,"101, First floor,opp.Sanyas near ellisbridge Ashram Roadnull, Ahmedabad",,,23.0238438,72.5706604
17,Ahmedabad,498,Hotel  O Relax Inn,,"4th Floor, Pushpak Complex, Opposite Prahladnagar Garden, Anandnagar Road, Ahmedabad",,,23.0119611,72.5054933
17,Ahmedabad,222531,Hotel O Apollo,,"28-29, Anoli Co. Op. Housing Society Ltd, B/1/1, Sunrise Park Road, above ADC bankabove ADC bank, above ADC Bank, Sunrise Park, Vastrapur, Ahmedabad, Gujarat , Ahmedabad",,,23.0414304,72.5281728
17,Ahmedabad,178711,Hotel O Royal King,,"4th Floor, Atlanta Business Hub, Above Kaka Bhaji Pav, Nana Chiloda Circle, Ring Road, Ahmedabad",,,23.1107093,72.6740719
17,Ahmedabad,2966,Hotel O Skyland,,"Near Adwait Hospital, Bopal Main Road, Near Bhavya Shopping Complex, Bopal Main Road, Ahmedabad5th Floor, Bhavya Shopping Complex, Opp- Govt Tubewell, Bopal, Ahmedabad-Gujarat, Ahmedabad",,,23.031379,72.473276
17,Ahmedabad,3414,Hotel O Kanchan Palace,,"Near Ahmedabad Railway Station, Ashram Road, Ahmedabad",,,23.039964089112132,72.57785391980562
17,Ahmedabad,682,Hotel O Crystal,,"Ashram Road, Ahmedabad",,,23.035518480434316,72.56917529598948
17,Ahmedabad,243365,Hotel O Rion Inn,,"4th Floor, nagindas Chamber, opp. auda office, Ashram Road, usmanpura, Ahmedabad",,,23.0452759,72.570026
17,Ahmedabad,301162,Hotel O by OYO RamdevGarh Resort,,"Pipan, Sanand, Ahmedabad",,,22.9415487,72.3740965
17,Ahmedabad,217937,Hotel O Konark Inn,,"E/3, 4th Floor, Galaxy Avenue, Opp:- Galaxy Cinema, Naroda, Ahmedabad, India , Ahmedabad",,,23.0777406,72.6538519
17,Ahmedabad,302625,Hotel O Shubh Sankalp,,"Shop No. 101 to 105 First floor Rimkar Infinite, Opp D Mart, Sanand Ahmedabad, Ahmedabad",,,22.9880278,72.3947029
17,Ahmedabad,296393,Collection O Ahmedabad Airport Formerly Hotel Runway Inn,,"Krishna Complex, Opposite Sardarnagar Police Station, Near International Airport, Ahmedabad",,,23.0810845,72.6327125
17,Ahmedabad,306774,Townhouse Oak Ahmedabad Junction,,"Opposite BMC Bank, Khanpur, Ahmedabad",,,23.028904,72.577523
17,Ahmedabad,307675,Hotel O International Airport Ahmedabad,,"Airport Road, Gandhinagar Road, Hansol, Ahmedabad",,,23.0859568,72.6307689
17,Ahmedabad,307901,Hotel O Ambawadi Bus Terminal Near Ahmedabad Airport,,"Near International Airport, Krishna Complex, Ahmedabad",,,23.0810768,72.6327432
17,Ahmedabad,307944,[Day Stay - 12 Hrs Slot: 8 AM to 8 PM] Hotel O Maninagar Railway Station,,"DK Complex, Near Kashivishvanath Mahadev, Maninagar, Ahmedabad",,,22.994762,72.614782
17,Ahmedabad,308106,Collection O Ransan Circle Near Nana Chiloda,,"Atlanta Business Hub, Near Airport, Gift City - Naroda Road, S.P. Ring Road Circle, Nana Chiloda, Ahmedabad, Ahmedabad",,,23.110088,72.673831
35,Ajmer,168343, Hotel O Vaibhav,,"487, Vaibhav tower, Bhattacharya Gali, Naya bazar, towards Laxmi chock, Ajmer, Ajmer",,,26.4604756,74.6310314
35,Ajmer,7874,Super  Hotel O Ganpati Plaza Ajmer,," S-13, Hari Bhau Upadhyay Nagar Main Near Carniwal Cinema and Mittal Hospital, Pushkar Road, Ajmer, Rajasthan., Gyan Vihar Colony, Ajmer, India,, Ajmer",,,26.471288,74.607615
35,Ajmer,215778,Hotel O Parao Formerly Cozy Inn,,"Sitaram Bazar, Kaiser Ganj Road, Chattai Mohalla, Ajmer",,,26.4519697,74.6351286
35,Ajmer,110941,Super Hotel O Kesarganj Formerly Suman Palace,,"16/1859, Gol Chakkar, Near Ice Factory, Kesarganj, Ajmer",,,26.4508889,74.63625
35,Ajmer,246024,Hotel O Ajmer Central Formerly Grand Suman,,"Plot Number 1, Kesarganj, Gol Chakkar, Ajmer",,,26.45054,74.636993
35,Ajmer,310791,[Day Stay - 12 Hrs Slot: 8 AM to 8 PM] Collection O Ajmer Station Road,,"Sitaram Bazar, Chattai Mohalla, Kaiser Ganj Road, Ajmer",,,26.4519877,74.6351566
35,Ajmer,35920,Hotel O Delight Home Stay,,"A47 hari bhau upadhyay nagar near mittal hospital and petrol pump ana sagar lake pushkar road Ajmer, Ajmer",,,26.4763339,74.6113578
35,Ajmer,354813,Hotel O S.S. Palace Guest House,,"Foysagar road, b.k. kaul nagar, Ajmer, Ajmer",,,26.4612461,74.60670139999999
35,Ajmer,37911,Super Hotel O Pushkar Talhati,," C Block, Opp S B I Bank, Pushkar Rd, Ajmer, Rajasthan , Ajmer",,,26.4821089,74.6089482
35,Ajmer,362412,Hotel O Haji ali,,"9/226 anasagar ghati kamala bhawdi ganj ajmer-, Ajmer",,,26.4658521,74.6292965
35,Ajmer,308124,Collection O Ajmer Dayanand Circle,,"Plot Number 1, Wing B, Kesarganj, Gol Chakkar, Ajmer",,,26.450581,74.63699
35,Ajmer,317374,Collection O Taragarh Fort,,"16/1859, Near Ice Factory, Gol Chakkar, Kesarganj, Ajmer",,,26.4508968,74.6362546
1748,Akbarpur,245407,SPOT ON Parth In,,"Katariya Yakubpur, Akbarpur, Akbarpur",,,26.4622736,82.5702041
1748,Akbarpur,360267,OYO 843881 CLASSIC INN HOTEL & RESTAURANT,,"Plot no :- 2373, New Dangal para, Birbhum, Nearby Landmark :- Near suri bus stand, Akbarpur",,,23.904515,87.526056
1748,Akbarpur,360771,OYO 843964 SR Hotel,,"34b Rura akbarpur road petrol pump k pass 34b Rura akbarpur road petrol pump k pass Akbarpur - Rura Road, Ram Nagarnull, Akbarpur",,,26.4844999,79.904842
792,Akola,226867,Hotel O by OYO Raj Guest House,,"state highway 161 wasim rood hingna naka, Akola",,,20.674736163054227,76.98508402335419
96,Alappuzha,304340,Hotel O Alleppey Inn,,"7/749 A 7/749 A Avalookunnu Punnamada Alappuzha, Alappuzha",,,9.5220047,76.3551645
270,Aligarh,218348,SPOT ON Golden Imperial,,"Plot No. 8, Delhi Bypass Road, Near Palki Lodge, Opposite To Manjoorgarhi Gate Manjoorgarhi Aligarh, Aligarh",,,27.9438521,78.0763854
270,Aligarh,248918,Hotel O by OYO BLUE DIAMOND HOTEL,,"G T ,Road, near Sariya Mil Factory, Boner, Aligarh, Uttar Pradesh, Aligarh",,,27.8582374,78.1431388
270,Aligarh,194431,Hotel O Pratiksha,,"Plot  No-03,Infront of manglaytan university beswan, Aligarh",,,27.6426956,77.8968007
270,Aligarh,223076,Hotel O by OYO LJP Farm House,,"Barotha, Nehar, Harduaganj, Uttar Pradesh 202125, Aligarh",,,27.9535245,78.163416
270,Aligarh,107422,Hotel O by OYO Sunrise,,"NH91 Gabhana Toll Plaza, G T Road, Gabhana 202143, India, Aligarh",,,28.0626389,77.9470278
270,Aligarh,109402,Capital O by OYO Kanha Resort,,"Nh34, Sikandra Rao, Hathras, Aligarh",,,27.7010902366491,78.3624870143831
270,Aligarh,155767,Super Hotel O by OYO Surprise Farm House,,"Rajeev Nagar, Bye Pass, Quarsi, Aligarh, Uttar Pradesh, Aligarh",,,27.8961383,78.1084593
270,Aligarh,354857,OYO HOTEL RAAS,,"Plot No.56 Near Santsar Public School, GT Road Mehrawal Bypass, Aligarh",,,27.9465376,78.0155791
270,Aligarh,249757,Hotel O ALIGARH INN,,"Plot No. 55Near Radiant star school, Khaireswar Chouraha, Khaireswar Road, Aligarh, Aligarh",,,27.8948056,78.0128973
270,Aligarh,185328,Hotel O by OYO HOTEL MANNAT,,"ETA chungi, Chauraha, bypass road, opposite sapa karyalay, Shankar Vihar Colony, Quarsi, Aligarh",,,27.9032371,78.1041519
270,Aligarh,233449,Hotel O by OYO THE HOTEL HEAVEN,,"Plot No.55 Plot No.55, Nagla Ummed Mathura Bareilly Bypass, Aligarh",,,27.6305568,78.0580609
270,Aligarh,292093,Hotel O by OYO MAYUR,,"Plot No. 54Grand Trunk Road, Aligarh, Aligarh",,,27.5799134,78.6308443
270,Aligarh,217322,Hotel O by OYO Dwarka,,"Sarsol, Aligarh, Sarsaul, Uttar Pradesh, Aligarh",,,27.9127222,78.0250556
270,Aligarh,302335,Hotel O by OYO Galaxy Hotel,,"Plot No 2 Near Vijay farm,Alinagar road alinagar, Aligarh",,,27.855257,78.1044465
270,Aligarh,232237,Hotel O by OYO D.K. PALACE HOTEL & ROOMS,,"Plot No.71Plot No.71 Near Toll Plazza, Tuamai Mod, National Highway, Akrabad, Aligarh",,,27.7964884,78.2845184
270,Aligarh,241980,SPOT ON PARKS HOTEL,,"Near bharat petrol pump,chandausi road,NH 509, Babrala, Aligarh, Uttar Pradesh, Aligarh",,,28.2725354,78.4178034
270,Aligarh,249719,Hotel O SAMRAT HOTEL,,"Bharat petrol pump, NH-509chandausi, road, near hero bike agency, babrala, Bahjoi, Aligarh",,,28.397481,78.631987
750,Alipurduar,318920,Super Hotel O Chilapata Forest Formerly Moner Manush Homestay,,"Plot No. 135, Lakra Road, Chilapata, Dakshin Barajhar Forest, Near Jaldapara National Park, Alipurduar",,,26.5577778,89.4081944
115,Alwar,359575,Townhouse Oak Alwar Railway Station Formerly RJ-02,,"Belaka, Near Hanuman Cricle, Opp. HDFC Bank, Surya Nagar, Alwar",,,27.5514731,76.6515718
115,Alwar,5929,Super Collection O Alwar Formerly Hotel Ashoka,,"Plot Number 77, Manu Marg, Opposite PNB Bank ,Kabir Colony ,Alwar , Alwar",,,27.5634374,76.6049855
115,Alwar,177086,Super Hotel O Railway Station Road Formerly Alwar Delight,,"Alwar Delight, Near Goshalla, Station Road, Near Goshalla, Station Road, Alwar",,,27.5529907,76.6345735
115,Alwar,4726,Hotel O Amrit Resort,,"A1/2Km Ahead Khati Ghati, Alwar, IndiaNear Kathi Gathi, Sariska Road, Alwar, Alwar",,,27.52167192450156,76.59389584178237
115,Alwar,307119,Hotel O DREAM INN,,"Plot no 8/54 NEB Housing Board  plot no 8/54 NEB Housing Board  gurdwara Roadnull, Alwar",,,27.5604713,76.6309276
115,Alwar,306534,Townhouse Oak Alwar Nehru Garden,,"Scheme No 2, Lajpat Nagar, Bhagat Singh Circle, Near Railway Station, Alwar",,,27.569828,76.618489
115,Alwar,325013,Hotel O Mahlawat ,,"Plot no 223a Near National Mega mart , harsuali, tijara, near police Chowki , Harsuali, Alwar",,,27.8673424,76.6101051
115,Alwar,239056,Super Townhouse Alwar Formerly Hotel Lindo Lugar,,"Scheme Number 2, Lajpat Nagar, Near Railway Station, Bhagat Singh Circle, Alwar",,,27.5698757,76.6184248
115,Alwar,307599,Super Hotel O Alwar Bus Station,,"Manu Marg, Opposite PNB Bank ,Bus Stand ,Alwar , Alwar",,,27.563159,76.604636
40,Ambala,58233,Hotel O Welcome Lounge,,"68, Opposite Main Bus Stand Ambala Cantt, Lal Kurti Bazaarnear Main Bus Stand, Ambala Cantt, Ambala",,,30.34165,76.8293
40,Ambala,50659,Hotel O by OYO Heaven,,"Plot No. 4472  DC Road, Sadar Bazar, Ambala Cantt. , Ambala",,,30.3376095,76.8416902
40,Ambala,203140,Hotel O Dhruva Residency,,"6071/6/1, Opp. Sewa Samiti Girls Sen Sec School,Idgah road 6071/6/1, Opp. Sewa Samiti Girls Sen Sec School,Idgah road  Ambala Cantt., Ambala",,,30.335750579833984,76.83585357666016
40,Ambala,55322,Hotel O by OYO Sangam Resort,,"village- ambala canttNear Suraj Kund Gurudwara, Ambala, Ambala",,,30.34835,76.8832251
52,Amritsar,2515,Collection O by OYO Amritsar Bus Stand Formerly Hotel Ricky International,,"Bus Stand, Hussainpura Chowk, Amritsar",,,31.6363437,74.8818505
52,Amritsar,48337,Hotel O by OYO Gian Residency,,"I/s Mahan Singh Gate Road, Opp Ram Garhia School, Cheel Mandi, Amritsar",,,31.626434,74.879517
52,Amritsar,99573,Collection O by OYO Ishwar Nagar Near Golden Temple Formerly Chahal Residency,,"Chahal Market, Dashmesh Nagar, Tarn Taran Road Area, Near Golden Temple, Amritsar",,,31.6011944,74.8818333
52,Amritsar,356707,Townhouse by OYO GT Road Amritsar Near Fortis Hospital,,"Greenland Verka, Amritsar",,,31.66215699999999,74.9154698
52,Amritsar,75880,Hotel O The Phoenix House,,"0101Basant Avenue, Near Dua Gallery,Near Trilium Mall,, Amritsar",,,31.6551379,74.874911
52,Amritsar,98796,Hotel O  A K Regency,,"01 New Golden Avenue, Amritsar",,,31.6284765,74.8965676
52,Amritsar,38601,Hotel O Aaditya Continental,,"01, Hussain Pura Bridge, G.T Road, Hussainpura, Kot Atma Singh road, Amritsar",,,31.6331578,74.8814138
52,Amritsar,212417,Hotel O by OYO Shiva Residency,,"O/S Lohgarh Gate 2311, Outside Lohgarh Gate, Lohgarh Chowk, Near Mahajan PVC Store, Amritsar",,,31.6250796,74.8692321
52,Amritsar,352954,Townhouse by OYO Golden Temple Amritsar Formerly A Star,,"Mahana Singh Road, Near Golden Temple, Amritsar",,,31.61950144483976,74.88060716695996
52,Amritsar,43487,Hotel O by OYO Mall Residency,,"Near Yes Bank, Mall Road, Amritsar",,,31.640947,74.870927
52,Amritsar,332805,Hotel O by OYO urban Arc,,"11 opposite veer bhan shivala, ghee mandi, Amritsar",,,31.6235403,74.88257159999999
52,Amritsar,325881,Hotel O by OYO S.C HEIGHTS,,"01 Lawrence Road, Opp. BBK DAV College, Above Sanjha Chulha, Amritsar",,,31.6454415,74.8781762
52,Amritsar,53500,Hotel O by OYO Kapoor Residency,,"Near Shivala Fatak, Hussain Pura Chowk, Amritsar",,,31.633861,74.884111
52,Amritsar,155979,Hotel O by OYO Gn Pride,," Near D-mart ,lawrence road, joshi nagar , Amritsar",,,31.6499724,74.8790737
52,Amritsar,1170,Hotel O by OYO Hotel Basera Vintage,,"01 Near Shiraz Castle, Queens roadNear Country Inn & Suites, Ram Bagh, Amritsar, Amritsar",,,31.63561,74.874229
52,Amritsar,220260,Hotel O  A B Sethi Home Stay,,"01Baba Bhorhi wala Chowk, inside guru ramdass hospital,Near golden Temple, Amritsar",,,31.6170145,74.8813517
52,Amritsar,204999,Hotel O Boss,,"Plot no 58Plot no 58  Near Golden Temple Parking Bridge G t. Road..Amritsar , Amritsar",,,31.6257367,74.8922807
52,Amritsar,351536,HOTEL O  Angad Regency,,"01 mahan singh gate, cheel mandi, Amritsar",,,31.6275027,74.8805673
52,Amritsar,82922,Hotel O by OYO Rr Residency,,"opp. bus stand, near obc bank, g.t. roadNear Amritsar Bus Stand, Amritsar, Amritsar",,,31.6302401,74.8855882
52,Amritsar,352359,Collection O by OYO Ambedkar Chowk Formerly Hotel Paras Inn,,"Cheel Mandi Chowk, Mahan Singh Gate, Amritsar",,,31.6259777,74.87984209999999
52,Amritsar,12475,Hotel O by OYO Grand Park,,"01 opposite Kherudin Masjid, Hall Bazar, Amritsar, Amritsar, India, Amritsar",,,31.6298142,74.8757947
52,Amritsar,169694,Hotel O City Inn,,"01, city centre, near bus stand amritsar, punjab, Amritsar",,,31.6282679,74.8868092
52,Amritsar,1064,Hotel O Sallow International,,"In Front Of Bus Stand (exit Gate), Amritsar",,,31.6308479,74.8817841
52,Amritsar,3023,Hotel O by OYO Ishita Residency,,"B-7-1103 Ludhiana, Punjab, Amritsar",,,31.6415026,74.893957
52,Amritsar,12473,Collection O by OYO Amritsar Near Bus Stand,,"Opposite Panj Peer Mandir, Mall Mandi, Near Bamrah Petrol Pump, GT Road, Amritsar",,,31.62475,74.8941389
52,Amritsar,16679,Hotel O Royal Dreams,,"09Hide Market, Near Bhandari Bridge, Amritsar",,,31.6334014,74.8761773
52,Amritsar,37267,Hotel O Destiny Inn,,"50, 50,  Hussainpura Chowk Near bus stand gt roadNear Hussainpura chowk, Ram Bagh, Amritsar, Amritsar",,,,
52,Amritsar,38170,Hotel O midtown,,"Sco No 87-88, Grand Trunk Rd, Near National Bus Terminal, City Centre, Amritsar",,,31.6290683,74.8856849
52,Amritsar,95634,Hotel O Moments Inn,,"01 01 Inside Sheranwala Gate ,Bazaar BakarwanaInside Sheranwala Gate Bazaar Bakarwana, Amritsar",,,31.626158,74.8829325
52,Amritsar,98470,Collection O by OYO Railway Station Amritsar Formerly Golden Home,,"Railway Road, Cycle Market, Opp Railway Station, Amritsar",,,31.6342222,74.8705
52,Amritsar,103950,Super Townhouse Golden Avenue Road,,"Golden Ave Rd, New Golden Avenue, Sharifpura, Amritsar, Punjab , Amritsar",,,31.62861,74.89178
52,Amritsar,113403,Capital O by OYO Western Galaxy,,"Deep Complex, Court Road, Amritsar",,,31.63570367,74.86897347
52,Amritsar,162932,OYO Hotel O Alpine Inn,,"01Ajit Nagar, Amritsar",,,31.6200278,74.8861389
52,Amritsar,222757,Townhouse by OYO Red Cross Amritsar Formerly Amar Villa,,"New Tehsilpura, Near Bus Stand, Amritsar",,,31.629231792096792,74.88858700580381
52,Amritsar,243917,Townhouse by OYO Ram Talai Crossway Formerly Midway,,"Abadi Tehsilpura, Near Bus Stand, Amritsar",,,33.7089766,-117.8493188
52,Amritsar,259461,Collection O by OYO Townhall Heritage Complex Amritsar Formerly Hotel TR,,"Inside Gate Ghee Mandi, Near Shera Gate, Amritsar",,,31.62478782391227,74.8843933135321
52,Amritsar,325483,Hotel O Avista Comfort Indo Pak Bus Stand,," Plot:-796 opp. bus stand exit gate, kot Atma Singh , main road, Amritsar., Amritsar, Amritsar",,,31.6306897,74.8816303
52,Amritsar,332755,Hotel O heritage view,,"0202old improvement trust chowk, inside shera wala gatenull, Amritsar",,,31.6252411,74.88367099999999
52,Amritsar,356019,Collection O by OYO Amritsar District Court Formerly Lotus Bloom,,"Plot No. 7/4, Rani Ka Bagh, Amritsar",,,31.6410600237257,74.85990115878859
52,Amritsar,356338,Hotel O Royal Palace ,,"11 Shivala Road, Amritsar",,,31.6380664,74.8868944
52,Amritsar,356438,Hotel O Park Plaza,,"1885/2 Bazar Bakarwana, Sheeran wala Gate, Amritsar",,,31.6267514,74.87934369999999
52,Amritsar,356449,Hotel O R D International,,"2084/khu opp labu ram cheel mandi labu ram cheel mandi, Amritsar",,,31.6269847,74.8812152
52,Amritsar,357370,Hotel O Royal Villa II Near Golden Temple,,"1451/11-12 1451/11-12 Katra Sher Singh, Katra Ahluwalia, Near Bank of India, Katra Ahluwalia, Amritsar",,,31.6239097,74.8794255
52,Amritsar,357477,Hotel O Citizen Residency,,"11 Mahan Singh Gate Road, near golden temple, Amritsar",,,31.6270381,74.882487
52,Amritsar,357483,Collection O hotel Florence ,,"03 opposite bus stand, near pingalwara, Amritsar",,,31.6299154,74.88672989999999
52,Amritsar,359530,Collection O Hotel V5,,"01 backside bus stand, Kot Atma Singh, Amritsar, Punjab 143001, Amritsar",,,31.6305788,74.8804696
52,Amritsar,362329,Hotel O ak pride,,"03 opp. uco bank, ram bagh, hide market, Amritsar, Amritsar",,,31.6326468,74.8782755
150,Anand,4028,Townhouse Anand Formerly Hotel The Maison,,"Chikhodra Road, Anand",,,22.547174,72.97144
150,Anand,306544,[Day Stay - 12 Hrs Slot : 8 AM to 8 PM] Townhouse Oak Gujarat Ganesh Chowkdi Bus Station,,"Chikhodra Road, Anand",,,22.54713,72.971369
150,Anand,4027,Palette Hotel And Resort Anand Formerly Hotel La Casa Inn,,"Anand Sojitra Road, Ganesh Crossing, Near Amul Dairy, Mangalpura, Anand",,,22.5466589,72.9710824
150,Anand,307275,Collection O Gujarat Anand City Bus Station,,"Anand-Sojitra Road, Ganesh Crossing, Mangalpura, Anand, Anand",,,22.546555,72.971131
538,Anantapur,325667,[Day Stay - 12 Hrs Slot : 8 AM to 8 PM] Collection O Anantapur Railway Station,,"Raju Road Near Srikantam Circle, Anantapur",,,14.68185877,77.60158356
538,Anantapur,243727,Townhouse Anantapur Near Srikantam Circle,,"Raju Road, Near Srikantam Circle, Anantapur",,,14.6818531,77.6015748
538,Anantapur,53576,Hotel O Anantapur,,"Khaja Nagar, Srinivas Nagar, Near Bus Stand, Anantapur",,,14.683478,77.601403
538,Anantapur,300760,Hotel O Ananthpur Formerly TR Residency,,"Ward No 8, Court Road, Anantapur",,,14.6809053,77.5942353
316,Asansol,359189,Super Hotel O Chittaranjan Bus Stand Formerly Khalsa Lodge,,"CRJ Station Road, Mihijam, Jamtara, Asansol",,,23.8578666,86.8782268
316,Asansol,237372,Hotel O Sunshine Lodging ,,"G.T. Road, Ushagram, Durgamandir, Opposite to Macom Plaza, Asansol, Asansol",,,23.6794163,86.995079
316,Asansol,75121,Super Hotel O by OYO Ajanta,,"225 Hutton road , Desraj Bhawan, 1st Floor, opposite Mosque, Asansol",,,23.68106,86.96907
316,Asansol,352153,Super Hotel O J J Lodge,,"1st floor Rozi Niwas Mother Teresa Road, Chelidanga, Near Volvo Bus Stand and Dosa Haat, Asansol",,,23.6889554463235,86.95878843068385
316,Asansol,58271,Hotel O Paras,,"24(64)/1 Gurunanak Complex  Rambandhu Talaw, Near GT Road, Asansol, Asansol",,,23.6816108,86.9882339
316,Asansol,224075,Super Collection O Flavour,,"00 00Sen-Raleigh Road, opposite of Asansol Engineering College, Asansol",,,23.7131422,86.9524158
316,Asansol,209422,Super Hotel O Hindustan Villa,,"National Highway 2, Grand Trunk Road, DVC more, Kalipahari, Asansol, West Bengal, Asansol",,,23.6715768,87.0238697
316,Asansol,197997,Hotel O ALISHA LODGE,,"229, Lower Chelidanga Asanso, Asansol",,,23.69094,86.95831
316,Asansol,356143,Hotel O Nilanjana Boutique Hotel,,"2nd floor  Sen Raliegh Road, Vivekananda Sarani, beside Sarmistha Banquet, Shristinagar, Asansol",,,23.6995243,86.953884
316,Asansol,356527,Hotel O Sher E Punjab,,"VF7 Gopal nagar, NH2, Near Kalla more Asansol, Asansol",,,23.6970409,86.9903961
51,Aurangabad,302010,Super Collection O Aurangabad Shendra MIDC Formerly Prayag Inn,,"Infront of Police station Karmad,  Jalna Road, Above HDFC ATM,  Jalna Road,  Karmad,  Sendra MIDC, Aurangabad",,,19.867378,75.539154
51,Aurangabad,105927,Collection O Iskcon Aurangabad Formerly Everest Inn,,"Jalna Road, Near Cambridge School, Aurangabad",,,19.8624722,75.4341111
51,Aurangabad,212588,Collection O Daulatabad Fort Aurangabad Formerly JVS Park Inn,,"Near H2O Park, Sambhaji Nagar, Abdhimandi, Aurangabad",,,19.9538062,75.2205397
51,Aurangabad,320505,Super Townhouse Seven Hills Aurangabad,,"Plot No. 21-22, Golden Rock, Vijay Nagar, Near Seven Hill Flyover, Gajanan Maharaj Mandir Road, Aurangabad",,,19.872459873698716,75.35262882157927
51,Aurangabad,1109,Super Townhouse Kranti Square Aurangabad,,"New Usmanpura, Aurangabad",,,19.8696012,75.3275828
51,Aurangabad,190418,Hotel O Grand Executive,,"Plot No.1 & 2, Gut No.166, Shendra Kamangar, Jalna Road, Aurangabad",,,19.8651035,75.4667898
51,Aurangabad,329237,Super Collection O Shendra MIDC Aurangabad Formerly Sai Palace,,"Jalna Road, Khubephal, Shendra MIDC, Chhtrapati Sambaji Nagar, Aurangabad",,,19.867056,75.49
51,Aurangabad,60769,SPOT ON Shree Gajanan,,"Cidco Busstand To Mukundvadi Railway Station Road, Near Mukundvadi Railway Station, Jaybhavani Nagar, Aurangabad",,,19.861388258362123,75.36770878359675
51,Aurangabad,332800,Hotel O Laxmi Lodging,,"Gut no 195, jalna road,  chikalthana, near city hospital., Aurangabad",,,19.8641628,75.4259965
51,Aurangabad,358073,Hotel O AB Executive Lodging ,,"Plot No 1  Chistiya Chowk, Near Medicover Hospital, Aurangabad",,,19.880167,75.360361
51,Aurangabad,355685,Hotel O Bappu Lodging ,,"gut no 06, nipani phata, aurangabad beed road, Aurangabad",,,19.8264952,75.4509231
51,Aurangabad,35686,Super Hotel O Kohinoor Plaza,,"Nirala Bazar Rd, opposite M.P. LOW COLLEGE, Samarth Nagar, Chhatrapati Sambhajinagar, Aurangabad",,,19.8796221,75.3233378
51,Aurangabad,304553,Hotel O Sachin And Family Restaurant,,"GN.325/1 bhalgoan fhata  dhule solapur highway bhalgoan fhata near balasaheb pawar college, Aurangabad",,,19.8100287,75.4676693
51,Aurangabad,172969,Hotel O Ramraj Inn ,,"Plot No 29/32, Ground Floor, Jalna Road, Shendra Midc, Chhatrapati Sambhaji Nagar, Aurangabad",,,19.867005,75.487547
51,Aurangabad,249969,SPOT ON Savali Guest House,,"Shree vyapari sankul, Block- S.S, Pratap chowk to ambedkar chowk Service Road behind axis bank, Bajajnagar waluj MIDC, Ch.Sambhajinagar, Aurangabad",,,19.840239,75.239011
51,Aurangabad,111137,Hotel O Padampura Near Railway Station,,"Dr Bhapkar Marg, Aurangabad",,,19.864526,75.312505
51,Aurangabad,317213,Hotel O Deogiri College Chhatrapati Sambhaji Nagar Aurangabad,,"New Usmanpura, Near Kranti Chowk, Aurangabad",,,19.8696079,75.3275917
343,Ayodhya,262849,Super Hotel O Raj Ghat Ayodhya Formerly Shree Siya Raman,,"Rajghat Parikarma Marg, Kandharpur, Ayodhya",,,26.80388,82.19432
343,Ayodhya,235944,Hotel O Nitya,,"Plot 8/2/22, near Hanumangarhi, Area Rikabganj, Civil line, Ayodhya",,,26.7781539,82.1382516
343,Ayodhya,295060,Super Hotel O Tedhi Bazaar Near Ram Janambhumi,,"Janki Vihar, Awasiya Yojana, Prahlad Ghat, Ayodhya",,,26.790114,82.190253
343,Ayodhya,259034,Super Hotel O Ayodhya Dham Bus Terminal Formerly Om Palace,,"Lavkush Nagar, Karsevakpuram, Ram Ghat, Ayodhya",,,26.7983056,82.2141111
343,Ayodhya,243567,Hotel O by OYO Ramam,," Plot no.34/56,Anand Vihar Colony Near Naka Bypass T O Raebareli Road First Cut, Ayodhya",,,26.754858,82.140286
343,Ayodhya,224524,Super Hotel O Saryu Ghat Formerly Balaji Palace,,"Near Saraswati Vidya Mandir, Tulsi Nagar, Ayodhya",,,26.8055556,82.2036111
343,Ayodhya,230985,Super Hotel O Rakabganj Crossway Ayodhya Formerly Ramaland Homestay,,"Near Edward Medical Hall, Telitola Chowk, Ayodhya",,,26.781965,82.145356
343,Ayodhya,324392,Super Hotel O Maharshi Valmiki International Airport Formerly Gaurav Inn,,"Plot No. 364, Min Mouja, Janoura, BNP, Sadar, Ayodhya",,,26.756767,82.1399634
343,Ayodhya,247289,Hotel O Home PK Guest Homestay,,"Plot no 01, Area Ram Raj colony, Behind Ayodhya Airport NH28, Near Gomti Hospital, Janaura Petrol Pump, Global International School, Ayodhya",,,26.7591944,82.15725
343,Ayodhya,256438,Super Hotel O City Inn,,"1061 Amaniganj Rampath, Ayodhya",,,26.7826944,82.1655556
343,Ayodhya,228030,Hotel O Home Rk Homes,,"Plot no.1, Luvkush Nagar, Ram ghat , Ayodhya",,,26.796263,82.217265
343,Ayodhya,360332,Hotel O Rama Palace Ayodhya ,,"1st Floor Plot no-1 Ranopali Choodamani Ayodhya  Ayodhya, Ayodhya",,,26.77765,82.1827816
343,Ayodhya,360119,SPOT ON ATHARV GUEST HOUSE,," 2, Ranopali, Chudamani Chauraha, Nearby Landmark- Asha home stay, Ayodhya",,,26.7772973,82.1871717
343,Ayodhya,354307,SPOT ON Shri Shankar Inn,,"BADI DEOKALI MANDIR, DEOKALI CHAURAHA TO DEVKALI BYPASS, ADARSH NAGAR BADI DEOKALI, Ayodhya",,,26.770099,82.1689818
343,Ayodhya,263517,Super Collection O Ram Mandir Ayodhya Formerly Hotel Aarambh,,"Near Sankalp, Saketpuri, Beniganj, Faizabad, Ayodhya",,,26.7759722,82.1777222
343,Ayodhya,328175,Super Hotel O The Family Palace ,,"Plot No-13 A Kaniganj Kami Ganj Ayodhya  Ayodhya, Ayodhya",,,26.786143,82.203648
343,Ayodhya,227656,Hotel O HOME RAGHAV HOMESTAY,,"plot no 1, Kumar hospital, Deokali bypass road, Near badi Deokali temple, Ayodhya",,,26.7691944,82.1660833
343,Ayodhya,234771,Hotel O Relax with Ramayana,,"plot no 1.Chudamadh Chouraha, Panchkosi parikrama marg, , Ayodhya",,,26.7761248,82.19312
343,Ayodhya,357500,Hotel O LAXMI PAYING GUEST HOUSE,,"Plot No - 362, Near Hanuman Garhi Khaki Akhada, Ram Path Road, Ayodhya",,,26.7962181,82.2039318
343,Ayodhya,303144,Hotel O Ramodhya Inn,,"Plot No-856 Darshan Nager Devkali road near Suraj kund Ayodhya Ayodhya, Ayodhya",,,26.75746,82.207591
343,Ayodhya,355725,Hotel O Shyam Kripa ,,"Plot No-011 mani Parvat temple kami Ganj Ayodhya  Ayodhya, Ayodhya",,,26.7834722,82.1977222
343,Ayodhya,219945,Hotel O Home HR Homes,,"plot No 1,Darshan Nagar  Faizabaad Road, Ayodhya , Ayodhya",,,26.7330625,82.2354375
343,Ayodhya,222588,Hotel O Maa Yashodha Palace,,"plot No 1.AChari ka Sagra, Near Surya kund AYodhya, Ayodhya",,,26.7521612,82.2106934
343,Ayodhya,228796,Hotel O Home Sita Ram Palace,,"plot no 1, near Raj sri dashrath hospitaljogipurwa village, Ayodhya",,,26.759618,82.205312
343,Ayodhya,232683,Hotel O Home Shri Laxmi Homestay,,"plot no 1,Hanumant nagar colony, Bikapur, Near deokali 14 kosi parikarma Marg, Ayodhya",,,26.756337,82.172872
343,Ayodhya,245598,Hotel O Home Crystal Cottage Home Stay,,"Bada Ramna, near Hotel Kohinoor Palace, Narendra Dev Nagar, Salarpur, Faizabad, Ayodhya",,,26.7771389,82.157
343,Ayodhya,232114,Hotel O Home KD Group Homestay,,"plot no 1,Deokali bypass, Opposite sona hospital. Deen dayal Nagar, Ayodhya, Ayodhya",,,26.7655009,82.1694738
343,Ayodhya,236014,Hotel O Home Aditya Inn Suits Homestay,,"Plot no1, Adarsh Puram colony Behind Panchseel hotel, Deokali bypass, Ayodhya",,,26.7675907,82.171257
343,Ayodhya,227669,Hotel O Home Shyama Lodge,,"Tedhi Gali Chowk, Near Baldev Vidya Mandir, Ayodhya",,,26.78109468832907,82.15094516836263
343,Ayodhya,348671,Hotel O The Oak Tree,,"Parikrama Marg, Ayodhya, Ayodhya",,,26.778494,82.212133
343,Ayodhya,216986,Hotel O Home Shri Hari Lodge Homestay,,"Vishal Nursing Home,Tulsi Nagar Near Sarswati Vidhya Mandir, Ayodhya",,,26.8055,82.20464
343,Ayodhya,217015,Hotel O Homes Maithli Raman Kunj Homestay,,"Naya Ghat, Near Ram ki paidi, Theri Bazar, Ayodhya",,,26.807211,82.20785
343,Ayodhya,353240,Hotel O SHRI NARAYANAM,,"4/12/1C KANCHIPURAM AMANIGANJ, NEARBY AWADH MALL, Ayodhya",,,26.7838889,82.1645
343,Ayodhya,247245,Hotel O Home Aditya Inn Suits Homestay,,"Plot No.-12, Vaishnav puram colony, Saket Puri, Near Dev Khali, Ayodhya",,,26.77038,82.173786
343,Ayodhya,262511,Hotel O Avantika Palace ,,"Plot no -02 Bageshwar Near Therth Chetra Puram mandhi Parvat Ayodhya, Ayodhya",,,26.784284,82.195861
343,Ayodhya,332813,SPOT ON DARSHAN PALACE,,"Ayodhya, gorakhpur road, maheshpur, gonda(Ayodhya), Ayodhya",,,26.8329722,82.2194722
343,Ayodhya,215905,Hotel O Home Siya Homestay,,"ACC Cement Godam, Aditya Nagar Colony, Rai Barelliy Road, Naka, Ayodhya",,,26.7503889,82.1285
343,Ayodhya,293399,Hotel O Saraswati Palace ,,"Plot -01 tursampur Near I.E.T. Campus Ayodhya, Ayodhya",,,26.7579722,82.1546667
343,Ayodhya,244086,Hotel O by OYO Suryavanshi Palace,,"Kosi parikrama marg Girija kund Janora Ayodhya, Ayodhya",,,26.7623056,82.1487222
343,Ayodhya,56779,SPOT ON 38000 Vaidehi Bhawan,,"1, Janki Ghat, Near Ayodhya Railway Sation, Pipli Gali Daharmsahal, Ayodhya, Ayodhya",,,26.7974661585041,82.2097331285477
343,Ayodhya,238411,Hotel O HOME Swagat Homestay,,"Plot No: 785, Parasuram singh nagar, Near RBS hotel, Janaura Bypass, Ayodhya",,,26.7592778,82.1591111
343,Ayodhya,247867,O Home Bhrat Vishram Grih Near Airport Ayodhya,,"Durga Puri Colony, Airport Road, Dhabha Semar, Salarpur, Paliya Shahzadi, Ayodhya",,,26.741956,82.144327
343,Ayodhya,246057,Hotel O by OYO Home Shree Narayana Homestay,,"Plot number -02 Kaushal Puri Kosi Parikrama Marg Ayodhya , Ayodhya",,,26.76725,82.1826667
343,Ayodhya,330790,Hotel O Narayan Palace ,,"Plot No 356/1 Mahaveer Puram Colony Saketpuri Ayodhya  Ayodhya, Ayodhya",,,26.7779167,82.1755
343,Ayodhya,352160,Hotel O Sai Dham Ayodhya ,,"Plot No-49 kaushal Puri Colony Phase -1 Ayodhya  Ayodhya, Ayodhya",,,26.7619167,82.1298889
343,Ayodhya,223910,Hotel O Home Madhav Homestay,,"Both No 4, Parikrama Marg, near Ramayna hotelAyodhya, Halkara Ka Purwa, Ayodhya, Ayodhya",,,26.770987,82.209506
343,Ayodhya,92145,SPOT ON Maharani guest house,,"Rampath ayodhya, Shringar hat ayodhya, Ayodhya",,,26.797555,82.203312
343,Ayodhya,240084,Hotel O Pranav Inn,,"Plot No 2, Tribhuvan Nagar, Old Airpot Road, Gate No 03, Ganja Road, Maharishi Valmiki International Airpot, Ayodhya",,,26.7504167,82.1483056
343,Ayodhya,326399,Hotel O Siya Ji Palace Guest House And Restaurant ,,"RAMGHAT HALT RAILWAY STATION, Ayodhya",,,26.8050955,82.2149806
343,Ayodhya,60652,Hotel O by OYO Hanuman Bagh,,"Near Janki Mahal Rd, Hanuman Bhag, Vasudev Ghat, Ayodhya",,,26.8030174,82.2118648
343,Ayodhya,213421,Hotel O Home Kanak Hotel & Resort Homestay,,"NH 27, Ayodhya, Ismailpur, Uttar Pradesh , Ayodhya",,,14.1311993585608,121.013749837875
343,Ayodhya,325127,Hotel O Prem Kunj Acharya Narendra Dev Nagar,,"Plot no.-05 Deolali bypass NH-27 ayodhya  Ayodhya, Ayodhya",,,26.7654248,82.1683805
343,Ayodhya,304205,Hotel O by OYO G.D Guest House,,"Block- B, sita kund, vidhya kund, Ayodhya",,,26.7830556,82.2077222
343,Ayodhya,285635,Hotel O The Nest,,"Plot No-01  halkara ka purwa panch kosi Parikrama marg Nearby parma academy, Ayodhya",,,26.777831,82.214064
343,Ayodhya,297200,Hotel O Ramyanika,,"Plot no-01 Raiganj Ayodhya Raiganj, Ayodhya",,,26.790306,82.203955
343,Ayodhya,239861,Hotel O Home Ram Bila Paying Guest House,,"Bag Bageshwar Near therth Chetra Mandi Parvat Ayodhya, Ayodhya",,,26.7822222,82.1961389
343,Ayodhya,79880,Hotel O by OYO Kavyanjali,,"Darshan nagar in Murali market near Surya kundNear Surya Kund, Darshan Nagar, Faizabad, Ayodhya",,,26.7547416,82.2099237
343,Ayodhya,332402,Hotel O Parth,,"Basupur, Vidyakund, Ayodhya",,,26.78262,82.20309
343,Ayodhya,305192,Hotel O by OYO Ayodhya Deluxe,,"Plot No-07 Raunak Puram colony Ayodhya Dham Road near Sahnawa chauraha Ayodhya  Ayodhya, Ayodhya",,,26.765375,82.185922
343,Ayodhya,322182,Hotel O Om Kaar Nath athithi newas,,"Golaghat road, Ashirphibhawan, Ayodhya",,,26.8027222,82.1975556
343,Ayodhya,62575,Hotel O by OYO Jyotish House,,"Sapt Sagar Colony, Tulsi NagarNear choti devkali, Begampura, Ayodhya, Ayodhya",,,26.801963408856448,82.20374656543385
343,Ayodhya,258918,Hotel O by OYO Blue Palace,,"Plot-121/2 Chandpur Harivansh Near Airport Ayodhya  Ayodhya Airport Road, Ayodhya",,,26.739173,82.138084
343,Ayodhya,222593,SPOT ON Hanuman Ji Guesthouse,,"Mugalpura, Near, Asharfi Bhawan Chauraha Rd, Ayodhya",,,26.802936,82.197234
343,Ayodhya,57811,Hotel O Star City Hotel,,"Near Abbu sarai road ,Sahadatganj, Ayodhya, Ayodhya",,,26.769174,82.109689
343,Ayodhya,248791,Clubhouse Hotel Ayodhya,,"Near petrol pump, Civil Line, Uttar Pradesh , Ayodhya",,,26.7772412,82.1354172
343,Ayodhya,308226,Collection O Ayodhya Central Railway Junction,,"Haweli Awadh, Janki Vihar, Prahlad Ghat, Ayodhya",,,26.790126,82.190281
343,Ayodhya,317214,Hotel O Ayodhya Bus Terminal ,,"Awadh Jila, Gram Shahjahanpur, Pargana Haweli, Ayodhya",,,26.7759789,82.1777311
86,Baddi,332809,SPOT ON Vishal guest house,,"village. gullarwalavillage. gullarwala opp.affy printalnull, Baddi",,,30.9589444,76.8095556
703,Bakkhali,243556,Palette - Hotel ICON Bakkhali,,"National Highway -12 Mouza Laxmipur Near Bakkhali Sea Beach Amrabati, P.O- Frazerganj coastal, Bakkhali",,,21.561056,88.261917
4,Bangalore,359113,Townhouse Neotown Crossway Formerly Lakewood Gardenia,,"Neotown Road, Phase I, Electronic City, Near Maragondanahalli Lake, Bangalore",,,12.82831,77.663951
4,Bangalore,358484,Hotel O ASHRAYA PARADISE,," #05 Abhivruddhi layout, phase 5, seegehalli, sonnenahalli, kr puram, Bangalore, Bangalore",,,13.020222,77.722139
4,Bangalore,355338,Palette Hotel and Resort Manyata Tech Park Bangalore Formerly Blue Diamond,,"Plot No. 92, Arkavathy Layout, Rachanahalli, Bangalore",,,13.0621847,77.6288349
4,Bangalore,329481,Townhouse Oak Science Gallery Bengaluru Formerly Blue Ocean Residency,,"Main Road, Ganga Nagar Layout, RT Nagar, Bangalore",,,13.0240535,77.5874746
4,Bangalore,209640,Super Collection O Goyal Residency,,"#17C, In Keonics Opposite Symbiosis Institute, Electronic city Phase-1, Hosur Main roadNear Shiksha Infotech, Hosur Main Road, Bangalore, Bangalore",,,12.8420427,77.6696299
4,Bangalore,53882,Collection O Indian Music Museum Bangalore Formerly HKH Homes ,,"MS Ramaiah City Layout, 8th Phase, Arekere, Bangalore",,,12.8803039,77.5884148
4,Bangalore,294786,Super Hotel O PANVITH SUITES near Bangalore International Airport,,"#148 Brindavana layout, kadigenahalli gate vidyanagar cross,kempegowda airport road, chikkajala, Bangalore",,,13.1653402,77.6330566
4,Bangalore,351921,Townhouse Seetharam Palya Metro Station Bangalore Formerly Silver Key,,"No. 70, H L Khatha No. 54, Sy.No.27, Chinnappanna Halli Gramatana, K R PURAM, Nallurahalligrama Panchayatha Marathahalli, Bangalore",,,12.962627,77.701281
4,Bangalore,50310,Hotel O HOTEL UTSAV PALACE,,"Kenchanahalli  Main Road, Lalith Castile International School Opp, B E M L Layout, Rajarajeshwari Nagar, R R Nagar,, Bangalore",,,12.9193889,77.5137778
4,Bangalore,359953,Hotel O UG Grand -1,,"#159, Opp Sheshadri puram Mantri mall Metro Station, Near Majestic and Vidhan Soudha, Malleswaram  Bangalore, Bangalore",,,12.9894837,77.5733166
4,Bangalore,223344,Collection O UTSAV GRAND,,"65,66Channasandra, Kengeri-Uttarahalli Main Road, R R Nagarnull, Bangalore",,,12.90297,77.51783
4,Bangalore,41318,Hotel O Shree AMM Residency,,"Dr.Marigowda Road, Lalbagh, Wilson garden, Mavalli, BengaluruMavalli, Bengaluru, Bangalore",,,12.9493121527024,77.5929174944758
4,Bangalore,76729,SPOT ON Gayatri Comforts,,"Yelahanka Satellite Town, Yelahanka, Bangalore",,,13.0981075467707,77.584415897727
4,Bangalore,357637,Hotel O Nisarga Hotel Boarding and Lodging ,,"1st Floor, No380 & 427,  Near Lakshminarasimha Temple, Jigani, Manhenahalli Anekal, Bangalore Rural, Bangalore",,,12.77935,77.63433
4,Bangalore,217924,Hotel O Lakshmi Sri Boarding & Lodging,,"696 Venkateshwar Complex, Attibele Circle, Attibele, Bangalore",,,12.7783035,77.7707305
4,Bangalore,225707,Hotel O S.L.V Boarding & Lodging,,"678/1Near Railway Bridge, M R Layout, Hosur Main Road, Chandapura, Bangalore",,,12.802403512888745,77.70850513280581
4,Bangalore,76649,Collection O Prime Residency,,"H B R Layout, 1st Block,1st Stage, Kacharkanalli, Bangalore",,,13.01704645568638,77.62865575030446
4,Bangalore,35908,Hotel O SPF Palace,,"Plot No.8, Healalige Gate, Chandapura Dommasandra Road, Near Chandapira Market, Anekal, Bangalore",,,12.808869562760123,77.70943785086274
4,Bangalore,359929,Hotel O Soladevanahalli Crossway Formerly Sri Pavani Comforts,,"Katha No. 2223/7, Chikkabanuvara, Dassanapalya Village, Yeshwanthapur, Hobali, Bangalore",,,13.0796538,77.5054839
4,Bangalore,203736,Hotel O M & M Hospitality,,"32, Palya Gate, Devanahalli, NH-7, Near Kempegowda International Airport, Bangalore Rural District, Bangalore",,,13.221393,77.682888
4,Bangalore,61825,Super Hotel O Channasandra Metro Station Formerly Sri Radha Krishna Nilaya,,"New Channasandra Extension, 6th Cross, PVS Convent Road, Near SBI Bank, Kadugodi Post, Bangalore",,,12.9811922,77.7660873
4,Bangalore,106512,Super Townhouse Sarjapur Road Formerly Hotel Ace,,"Plot No. 6, Doddakannelli Village, Varthur Hobli, Bangalore",,,12.9117168,77.6982462
4,Bangalore,304708,Super [Day Stay - 12 Hrs Slot : 8 AM to 8 PM] Collection O Beratena Agrahara Metro Station,,"Pragati Nagar, Begur Hobli, South Taluk, Bangalore",,,12.8643687,77.6592158
4,Bangalore,238988,Super Collection O Kadugodi Tree Park Metro Station Bengaluru Formerly Royal Rooms,,"Channasandra, Kadugodi, Whitefield, Bangalore",,,12.9828889,77.7682222
4,Bangalore,242573,Super Townhouse Oak Mahadevapura Opposite Phoenix Mall Formerly Grand Wilton Inn,,"Garudacharpalya Mahadevapura Village, Whitefield Road, KR Puram, Hobli, Bangalore",,,12.9940401,77.7012687
4,Bangalore,110516,Super Collection O Summanahalli Bus Stand Formerly Elevate 58,,"Nandini Layout, Near Laggere Bridge, Kanteerava Nagar, ASVL Party Hall, Outer Ring Road, Laggere, Next To Indian Oil Petrol Bump, Near Summanahalli Bus Stop, Bangalore",,,12.994499,77.52233369999999
4,Bangalore,45734,Capital O Champion Lotus Near Mantri Square Mall,,"1st Cross Road, M C Road, Near Telephone Exchange, Vijayanagar, Bangalore",,,12.975989,77.545298
4,Bangalore,253048,Super Townhouse Oak AECS Layout Brookfield,,"Plot No. 602, Asha Tiffins, Above Cult Store Kundalahally Colony, Brigade Tech Park, Bangalore",,,12.9644951,77.7158353
4,Bangalore,214274,Super Townhouse Reva College University,,"Plot No. 21, Simithra Inn, Kattigenahalli, Jakkuru, Yelahanka Zone, Bangalore",,,13.118123639492655,77.63341700658202
4,Bangalore,105514,Hotel O K N Residency,,"Near Reva University, 2nd Cross, Masjid Road, Shri Krishna Garden Layout, Kattigenahalli, Bangalore",,,13.1190836263348,77.6314435712993
4,Bangalore,110277,Hotel O Home Mishra Suites,,"Behind Kanti Sweets, Hosa Road, Singasandra, Bangalore",,,12.878136430377403,77.67209915444255
4,Bangalore,291830,Hotel O by OYO Easynest Bharathi city,,"Hegade Nager, Main Road, Chokkanahalli, Bangalore, Bangalore",,,13.081222,77.634306
4,Bangalore,192406,Capital O Elite Stay Jp Nagar Near SRI SATHYA GANAPATHI SHIRDI SAIBABA Temple,,"6th Phase, KR Layout, JP Nagar Phase 6, J. P. Nagar, Bengaluru, Bangalore",,,12.9024437,77.5829442
4,Bangalore,47958,OYO 26817 GKS Residency,,"Off 100 Feet Road, Near Citi Bank ATM, Vysya Bank Colony, BTM Layout 2nd StageNear Jayadeva circel, Vysya Bank Colony, BangaloreNear Jayadeva circel, Vysya Bank Colony, Bangalore, Bangalore",,,12.916333,77.60175
4,Bangalore,37889,Hotel O Townhall,,"M S R Towers, J C RoadNear Dhanlakshmi Bank, JC Road, BangaloreNear Dhanlakshmi Bank, JC Road, Bangalore, Bangalore",,,12.961537,77.583802
4,Bangalore,339695,Hotel O Airport Nest,,"Sy no.18/2, Katha No. 549/325/32 Kadiganahalli Village, Brindavan Layout BB Road, Chikkajala Hobli, Yelahanka Taluk, Bangalore",,,13.164808526677414,77.63382351532753
4,Bangalore,113831,Hotel O Elite Lifestyle Red Rose Near 7d Voyage,,"01, Devarabeesanahalli, Doddakannelli Road, Devarbisnahalli Arch, Opp R C Sai Neeketan Apartment, Bangalore",,,12.929211,77.685341
4,Bangalore,355788,Hotel O Royal Treat,,"18 RGA tech park, Bangalore",,,12.903409415552439,77.70490801101211
4,Bangalore,36817,Super Townhouse Kanakpura Road Formerly Panchavati Comforts,,"Vasanthapura Main Road, Kanakpura Road, Near Yelachenahalli Metro Station, Bangalore",,,12.893487579310985,77.55843391535274
4,Bangalore,88914,Super Hotel O Archana Inn,,"3rd Floor, Bank Building, Jc Road Bangalore, 23 J C Road Signal Union, Near Minerva Circle, Lalbagh, Bangalore",,,12.957726,77.5824463
4,Bangalore,307264,SPOT ON Gsb India,,"A block, Parappna agrahra main Rd, AECS layout, singasandra, Bangalore",,,12.8806667,77.6549444
4,Bangalore,215654,Super Collection O Druvi Corporate Hotel,,"Kanappana Agrahara, Begur Hobli Bangalore South Taluk, Bangalore",,,12.85428,77.66686
4,Bangalore,215389,Hotel O Royal Galaxy,,"39/1 Sarjapur main road, Iblur Village, Bellandur, Bangalore",,,12.9211621,77.6636246
4,Bangalore,104552,Super Townhouse RR Nagar,,"Plot Number 5, R.R Nagar Main Road, Channasandra, Rajarajeshwari, Bangalore",,,12.9042756,77.521203
4,Bangalore,177648,Super Hotel O Mn Residency Near Ragigudda Sri Prasanna Anjaneyaswamy Temple,,"Madiwala, South Zone, Bangalore South, Bangalore Urban, 560034, Bangalore",,,12.919334,77.620742
4,Bangalore,48981,Super Hotel O Ganakkal Near BGS Hospital Junction Formerly Omkar Global Inn,,"3rd Cross Sapthagiri County Layout, Opposite BGS Hospital, Utthrahali, Kengeri, Bangalore",,,12.905912,77.499748
4,Bangalore,300333,Super Collection O REVA University Rukmini Knowledge Park,,"Plot No. 20, Katha No. 711/701/20, Sathnur Village, Jala Hobli, Bangalore",,,13.119222,77.637889
4,Bangalore,20146,Super Townhouse MG Road Near Commercial Street,,"2nd Floor, Main Guard Cross Road, Safina Plaza, Near Kalyan Silks Commercial Street, Bangalore",,,12.981283,77.607727
4,Bangalore,104401,Super Townhouse Karmelaram Railway Station Sarjapur,,"Plot No. 31-31, Gear Road, Adarsh Palm Retreat, Near AET College Junction, Bellandur, Bangalore",,,12.9157858,77.6983979
4,Bangalore,106081,Super Townhouse BTM Layout Near Madiwala Lake Formerly Q Rooms,,"Stage 2 BTM Layout, Bangalore",,,12.913503476404454,77.6054028168904
4,Bangalore,110292,Super Townhouse Whitefield Bangalore,,"Prashanth Extension, Kadugodi, Mahadevapura Zone, Bangalore",,,12.9825763,77.7483662
4,Bangalore,114586,Super Collection O Bannergatta Road Near Decathlon,,"Gottigere, Near Decathlon, Bannerghatta Road, Bangalore",,,12.8614167,77.58975
4,Bangalore,230282,"Hotel O Indian Residency, Near Adams Academy, Kadugodi",,"No. 232, Near Adams Academy 1st Cross, Patalamma Layout, Kadugodi, Bangalore",,,12.9929878,77.7659462
4,Bangalore,17536,Hotel O Varcity Emerald Near Ragigudda Sri Prasanna Anjaneyaswamy Temple,,"12th Main Rd, Keb Colony, Madiwala, 1st Stage, B T M Layout 1, Bangalore",,,12.917453,77.607491
4,Bangalore,221053,Hotel O Sri Ranga Boarding & Lodging,,"242Shri Ranga Comforts, Gangamma Gudi Police Station, Opposite Sri Ram Sameeksha Apartment, Singapura, Yelahanka Hobli, Bangalore",,,13.0715821,77.5346766
4,Bangalore,351808,Hotel O Mirage Suites,,"No.1041, 5th Block, 1st Stage, Nagavara Village, HBR Layout, Bangalore",,,13.0385289,77.6248348
4,Bangalore,194085,Hotel O Relax Inn,,"#54, 1st block, Bhavani HBCS Layout, Banagiri Nagar, BSK 3rd Stage, Bangalore",,,12.926166,77.560945
4,Bangalore,299164,Super Hotel O Abbigere Bangalore North Formerly MLV Grand,,"Ward No. 12, BV Gurunatha Layout, Wimac Circle, Kammagondanahalli, Shettihalli Yeshwanthpura Hobli, Bangalore",,,13.0681552,77.5302788
4,Bangalore,320515,Super Hotel O AYODHYA RESIDENCY,,"No.1, 2nd Floor Above Bank of Baroda, ARNA Heights l, Ramamurthy Nagar main road, Hormavu, Bangalore, Bangalore",,,13.0221099,77.6711845
4,Bangalore,359520,Hotel O S.B Lodge,,"01, 1st Main Rd, Attibelenull, Bangalore",,,12.77803,77.7698431
4,Bangalore,109493,Super Hotel O IRA Sathyajyothi Comfort,,"Vivekananda Park Road, 4th Phase, Girinagar, Bangalore",,,12.939944,77.547778
4,Bangalore,113699,Sleek Townhouse Galexia Hotel and Resorts,,"Galexia Hotel And Resorts, Galaxy Enclave, Jakkur Plantation, Bangalore",,,13.0831282501109,77.5944777019322
4,Bangalore,3530,Super Hotel O Resida Elite Service Apartments Near Manipal hospital,,"19th Main Road, Indiranagar, Bangalore",,,12.9613,77.64549
4,Bangalore,249717,Hotel O Dasarahalli Metro Station Bangalore Formerly Megha Ventures,,"West Side, Doddabidarakallu, Venugopala Nagar, Bangalore",,,13.0394759,77.4940999
4,Bangalore,48544,Hotel O Cosmopolitan,,"32, Boovanahalli, HosathotaNear Bengaluru Airport, Palya Gate, Bangalore, Bangalore",,,13.2213614,77.6828881
4,Bangalore,326613,Super Collection O Biocon Hebbagodi Metro Station Bangalore Formerly Ira Inn,,"4th Cross, Hulimangala Main Road, Maragondanahalli, Bangalore",,,12.83225,77.649778
4,Bangalore,109059,Super Townhouse Siri Residency,,"1st Cross Rd, Sector B, Bhuvaneswari Nagar, Bangalore",,,13.05641,77.60021
4,Bangalore,270289,Super Collection O Brookefield Central Formerly Bangalore Inn,,"Govinda Reddy Road, BEML Layout, Brookefield, Bangalore",,,12.9615637,77.7169086
4,Bangalore,291139,Hotel O Bluestar,,"No. 231, Near Adams Academy1st Cross, Patalamma Layout, Kadugodi, Bangalore",,,12.99305,77.766085
4,Bangalore,319062,SPOT ON Sj Comforts Boarding And Lodging,,"Jigni Aanekal Road, Haragadde Village, AaneKal, Bangalore",,,12.7665941,77.6527931
4,Bangalore,285294,SPOT ON Nagananda Residency,,"98Plot no.- 1845, Jayanagar 4th T block, 18th main, Jayanagar, Bangalore",,,12.918229,77.589485
4,Bangalore,184451,Super Hotel O Whitefield,,"Thubarahali Village, Varthur Hobli, East Taluk, Bangalore",,,12.96027,77.72175
4,Bangalore,219407,Collection O Ashraya Paradise,,"42/2 2nd Main, Near Jalaram Bhavan, Toll gate Circle, Rajajinagar, Bangalore",,,12.97694468458798,77.54798783542374
4,Bangalore,352795,Hotel O The Classic Crown,,"N0-189 2nd block 2nd stage, Bangalore",,,12.981258,77.510841
4,Bangalore,325909,[Day Stay - 12 Hrs Slot : 8 AM to 8 PM] Collection O Koramangala,,"4th Block, 100 Feet Road, Opposite Malabar Gold, Koramangla, Bangalore",,,12.93588017,77.62547826
4,Bangalore,291230,Super Townhouse Oak DLF Newtown Formerly South Square ,,"3 and 4 Floor No 1, Yelanahalli Main Road Begur, Yelenahalli, Bangalore",,,12.8758869,77.6168294
4,Bangalore,354864,Super Collection O Bangalore East Railway Station Formerly YA Inn and Suites,,"Madhavaraya Mudaliar Road, The Deagh Frazer Town, Bengaluru Urban, Bangalore",,,13.0005625,77.6146875
4,Bangalore,223999,Hotel O Unique Shravanya Comforts & Lodge,,"BTM RTO Road 2nd block, BTM 2nd stage, 6th stage, Bangalore",,,12.884628,77.612589
4,Bangalore,223236,Super Collection O Uttarahalli,,"Plot Number 74, 2nd Cross sapthagiri Country Layout, Uttarahalli, Bangalore",,,12.9044513,77.4995593
4,Bangalore,237980,Super Collection O Niladri Road,,"Plot Number 35, Bettadasanapura Main Road, Bangalore",,,12.842937,77.641938
4,Bangalore,194035,Super Collection O Royal Elevar,,"Dasarahalli, Bengaluru, Byatarayanapura CMC and OG Part, Karnataka, Bangalore",,,13.05909167,77.61034667
4,Bangalore,61914,Hotel O Channasandra Metro Station Formerly Sri Krishna Nilaya,,"Plot No. 111/1, New Channasandra Extension, 6th Cross PVS Convent Road, Kadugodi Post, Near SBI Bank, Bangalore",,,12.9817079228506,77.7665127441287
4,Bangalore,214602,Super Collection O Sarjapura Road Kasavanahalli,,"MBR Complex, Hosa Road, Kasavanahalli Main Road, Sarjupur, Bangalore",,,12.9086362,77.6762344
4,Bangalore,106105,Super Townhouse Spruce Hotels Bellandur,,"P N C Aspire, 7th Main Road, I B L U R, Sarjapur-marathalli Outer Ring Road Junction, Bellandur, Bangalore",,,12.92427,77.66685
4,Bangalore,190173,Collection O Global Stay Near Kengeri Bus Terminal Metro Station,,"R V Layout, Bangalore",,,12.913606,77.497009
4,Bangalore,211790,Super Townhouse Hebbal,,"Bhadrappa Layout, Kodigehalli, Yelahanka Zone, Bangalore",,,13.049834933664467,77.57570374757051
4,Bangalore,196313,Hotel O Pride Inn,,"14 Cross, Hosur, Bangalore",,,12.9026919,77.6328863
4,Bangalore,9497,Super Hotel O Cricotel ,,"448/3383rd Floor, S R K Tower, Bilekahali, B G Road, Bangalore",,,12.897583,77.599722
4,Bangalore,944,Super Townhouse Richmond MG Road Metro Formerly Richmond Residency,,"Zodiac Tower, Opposite Classic Building, Richmond Road, Bangalore",,,12.9660062,77.6059139
4,Bangalore,241416,"Hotel O Sri Harshitha Grand Near Zudio - Star Bazaar, Kundalhalli Gate",,"Gulmohar Enclave Road, Silver spring layout, Beside Zudio star bazar, Opp Sankara Eye Hospital, Kundalahalli gate, Bangalore",,,12.955217,77.712971
4,Bangalore,83909,Capital O N R Residency,,"1st Main, 7th Cross, Vinayak Nagar, Yelahanka, Bangalore",,,13.118667,77.6115
4,Bangalore,359717,Hotel O V R Residency ,,"#506,2nd floor,East end circle, behind hotel amaravathi, 9th block, jayanagar, Bangalore",,,12.9172131,77.5968907
4,Bangalore,217481,Super Hotel O IRA Comforts,,"No.85 22nd Main Road, PES College road, Mysore Bank Colony, Phase 1, Banashankari 1st Stage, Bangalore",,,12.94047,77.5535
4,Bangalore,236530,Hotel O KPC Comfort,,"BGS Layout, KV Jayaram Road, Jakkur, Bangalore",,,13.072802,77.60269
4,Bangalore,243420,Super Townhouse ITPL Near Prestige Shanti Niketan,,"Asadaramangala Industrial Area, Near Aster Hospital, Bangalore",,,12.98803,77.73386
4,Bangalore,226956,SPOT ON CHAMUNDESHWARI COMFORT,,"No 6&7 6&7 Kempegowda Nagara, Service Road,Leggere Ring Road, Near Vishal Mart, Bangalore",,,13.002139,77.525944
4,Bangalore,247861,Super Collection O K R Puram Manyata,,"Kothanur Village, K.R Puram, Hobli, Bangalore",,,13.065047,77.646221
4,Bangalore,254506,Super Townhouse Hebbal Dasarahalli Formerly Otium Suites,,"18th R Cross, Bhuvaneshwari Nagar, Dasarahalli Main Road, Sahakarnagar Post, Bangalore",,,13.0540363,77.6055207
4,Bangalore,104480,Super Townhouse Ramamurthy Nagar Formerly Navya International,,"Byanna Industrial Garden, DV Nagar, Vijinapura New Extension, Bangalore",,,13.00687,77.66681
4,Bangalore,84814,Hotel O The Royal International Hotel,,"Popular Colony, HSR Layout, Bengaluru, Bangalore",,,12.902444,77.633083
4,Bangalore,84814,Hotel O The Royal International Hotel,,"Popular Colony, HSR Layout, Bengaluru, Bangalore",,,12.902444,77.633083
4,Bangalore,243331,Super Hotel O Sahasra,,"Pappamma Layout Rd, Garden Street Layout, Krishna Reddy Layout, Ramamurthy Nagar, Bangalore",,,13.014184691116338,77.66772688478311
4,Bangalore,83864,Collection O Rajajinagar Industrial Estate,,"4Th Main, 4Th Cross, Chord Rd, 4Th Block, Agrahara Dasarahalli, Basaveshwar Nagar, Bangalore",,,12.981431,77.537708
4,Bangalore,329463,Super Hotel O Karanji Comfort,,"147, Above UCO BANK, opp JSS institute SBI Bank, Uttarahalli, Kengeri Main Road, Near RNS Institute & Near BGS Medical College, R R Nagar, Bangalore",,,12.904806,77.505139
4,Bangalore,247310,Super Townhouse Marathahalli Near Sri Nagalingeshwar Swamy Temple Formerly Hotel Avenue,,"Property No.100, Situated at Presently known as ASHWATHNAGAR, MUNNEKOLALA Village, Värthur Hobli, presently Bengaluru, Bangalore",,,12.9571311,77.7032384
4,Bangalore,263503,Townhouse Maralkunte near Shree Kateramma Temple ,,"Maralakunte Village, Taluk Marenahalli Village Panchayat, Bangalore",,,13.132139,77.711389
4,Bangalore,230509,Hotel O U.G. Grand,,"1C Apoorva Layout,  Near Ambedkar College & Bangalore University 02 nd stage, 80 feet main Road, Nagarbahavi, Bangalore",,,12.96094,77.50719
4,Bangalore,112547,Hotel O Compact Studio Kr Puram Near Phoenix Marketcity,,"K V G Omkar Building, 3th Floor, Batrahalli, Bansantapura Main Road, K R Puram, Bangalore",,,13.014661,77.709321
4,Bangalore,360835,Hotel O Day & Night Palace,,"20/3 sri ram towers Nagasandra post, Bangalore",,,13.0625065,77.4947686
4,Bangalore,112096,Hotel O Spot on S L V Comfort,,"Bazaar Street, Yeshwanthpura, Rajarajeshwari Nagar Zone, Bangalore North, Bangalore Urban, Bangalore",,,13.021104526696286,77.55398908630013
4,Bangalore,319861,Super HOTEL O UTSAV STAY,,"# 5/6 Sunkadakatte Bus Stop, Opposite To Wild Craft Factory, Magadi Main Road, Bhairaweswara Layout, Sunkadakatte Banglore , Bangalore",,,12.988083,77.505083
4,Bangalore,104869,Super Collection O Green View Homes Near Nexus,,"23rd Cross, Ejipura Main Road, Near Ejipura Signal, Bangalore",,,12.94331,77.63054
4,Bangalore,243582,Super Hotel O Sajapur Formerly Blissful stays,,"No.110/2, Situated at Kodathi Village, Varthur Hobli, Bangalore east taluk, Bangalore",,,12.89369,77.71778
4,Bangalore,326893,Super Hotel O RK RESIDENCEY,,"143 A 2nd Cross Road, Pai Layout, Benniganahalli, Bangalore",,,12.9947883,77.666115
4,Bangalore,191998,Hotel O S M Residency,,"No. 20, thigalara layout, outer ring road behind Indian petrol bunk, nayandahallinull, Bangalore",,,12.948235044887005,77.5231467646534
4,Bangalore,304624,Super Hotel O Saptagiri Comforts,,"10/3, Narayappanapalya village, Dasanapura Hobli, Bangalore",,,13.0569167,77.43475
4,Bangalore,304723,[Day Stay - 12 Hrs Slot : 8 AM to 8 PM] Hotel O Suryanaarayana Swamy Temple Indiranagar,,"HBCS Layout, Domlur, Bangalore",,,12.954663,77.6408234
4,Bangalore,353845,Hotel O Srirampura Metro Station Formerly Broadway Inn,,"Plot No. 57, 1-Main, Rajajinagar, Bangalore",,,12.9908323,77.557767
4,Bangalore,3120,Collection O Tiara Near Christ university,,"St Johns Woods A P T S & Oracle, Tavarekere Main Rd, Bangalore",,,12.931121173501722,77.61087169870734
4,Bangalore,224609,Super Hotel O PM Hotels,,"14 & 15 14 & 158th Cross NGR Layout, Roopena Agrahara, Bangalore",,,12.911771,77.624267
4,Bangalore,358979,Super Hotel O Chikkabanavara Lakeview Bangalore Formerly Bvk Residency,,"SLV Complex, First Floor, Hesaraghatta Main Road, Near Ayyappa Swamy Temple, Chikkabanavara, Bangalore",,,13.0854793,77.4980456
4,Bangalore,36701,"Hotel O Varcity Phi Premium Pavilion ,Above HDFC Bank ,Near Anjaneya Temple Madiwala, Hosur Main r",,"21, Old Madiwala, Madiwala, 1st Stage, B T M Layout, Bangalore",,,12.922059878576333,77.61966390246697
4,Bangalore,356513,SPOT ON Rrr Residency,,"11, 2nd main road, Dispensary Rd, Kalasipalya, Bengaluru, Karnataka, Pincode- 560002, Landmark- near citizen hospital, Bangalore",,,12.9576389,77.5764167
4,Bangalore,211987,Super Townhouse Hebbal Bhadrappa Layout,,"Bhadrappa Layout, Kodigehalli, Yelahanka Zone, Bangalore",,,13.050073720683576,77.57589116692543
4,Bangalore,332896,Super Townhouse Element Mall Bangalore Formerly Venkat Inn,,"SS Elemental, 2nd Main Road, 1st Stage, 3rd Block, HBR Layout, Bangalore",,,13.0266566,77.6247338
4,Bangalore,246925,Collection O KR Puram Ayyappa Nagar Formerly Sunrise Arcade,,"SunRise Arcade, Kodigehalli Main Road, Near Dominos, Ayyappa Nagar, Krishnarajapuram, Bangalore",,,13.004570862149379,77.7157900067175
4,Bangalore,253131,Hotel O RR Comforts,,"198 Next to YGR Signature Mall, 80 Feet Road Near RNS College And JSS Engineering College, R R Nagar, Bangalore",,,12.9069698,77.5121599
4,Bangalore,223807,Dream Comforts Lodging & Boarding,,"Green View Layout, Kengeri, Bengaluru, Bangalore",,,12.907722,77.488556
4,Bangalore,304602,Hotel O GRS Hotel,,"343/34 Siddaiah Road , Hombegowda nagar, Near shanthi Nagar bus stand Nimans HOSPITEL  willson Garden Bangalore, Bangalore",,,12.9495673,77.5972134
4,Bangalore,88630,Capital O SLN Residency,,"Jakkur Plantation, Jakkuru Village, Bangalore",,,13.08317,77.594843
4,Bangalore,342560,Townhouse IIM Bangalore Formerly Hotel Onyx,,"Nyanapahalli Main Road, Maruthi Layout, Stage 4, Bommanahalli, Bangalore",,,12.876317,77.612981
4,Bangalore,106027,Grand Collection O Near Sarjapur Road Near 7d Voyage,,"Owners C T E Rd, Owners Court Layout, Kasavanahalli, Bangalore",,,12.89889,77.67618
4,Bangalore,220713,Collection O Bannerghatta Road Near IIM Bangalore,,"5th Main Road, Near IIM, Bangalore",,,12.892712,77.606976
4,Bangalore,330470,Hotel O Bidadi Railway Junction Bangalore Formerly Ejalla,,"Betemgere Grama Bannikuppe, Bidadi, Bangalore",,,12.867307,77.363719
4,Bangalore,108954,Super Townhouse Ulsoor Near Halasuru Metro Station,,"New Municipal Number 9, Old Madras Road, Swamy Vivekanada Road, Halasuru, Bangalore",,,12.977356867128043,77.62706207957874
4,Bangalore,112008,Super Santa Maria Near Indiranagar Metro Station,,"Diagonal Road, 7th Main, Hal 3rd Stage, Jeevan Bhima Nagar, Bangalore",,,12.96903904274,77.6568487845361
4,Bangalore,202649,Hotel O SN Deluxe,,"453, Sri Nanjundeshwara Complex, Kenchanakuppe Gate, BM Road, Bidadi, Bangalore",,,12.793397013512017,77.3802653137402
4,Bangalore,37869,Hotel O Atithi Residency,,"762/2 Chandra Tower, Near Atibelle Toll, AttibeleNear Udupi bhavan, Attibele, Bangalore",,,12.777402,77.775665
4,Bangalore,205478,Hotel O Sri Thirumala Lodge,,"Mysore Road, Ranganathan Colony, Opp BHEL, Bangalore",,,12.94961,77.53711
4,Bangalore,199600,Super Hotel O Hennagara Rd Bommasandara,,"Plot Number 725, Club House, 5th Cross Road, Rk Township, Yarandahalli, Bommasandra, Bangalore",,,12.8039101,77.6716995
4,Bangalore,235096,Super Townhouse Bellandur Near Embassy Tech Village,,"Bhoganahalli, Survey Number 128/6, Near Flipkart, Varth Hobli, Bangalore",,,12.9272,77.69633
4,Bangalore,197931,Hotel O Blossom Suites,,"14/9 Jayaram Nagar, Behind Jukkur Aerodrome, Jukkur, Bangalore",,,13.075601,77.60273
4,Bangalore,270343,Super Townhouse Whitefield Railway Station Formerly Kadugudi Whitefield,,"Khatha No. 89/2, Belathur Village, Hobli, East Taluk, Bangalore",,,13.00623,77.7521797
4,Bangalore,250148,Super Hotel O Om Sai Residency,,"Plot 04 , Opp JSS Engineering College Bus stand , Vishnuvardhan Road , Near Global Village Tech Park & BGS Medical College, Channa Sandra, R R Nagar, Bangalore",,,12.905074848314364,77.50499241600093
4,Bangalore,300044,Collection O Kalyan Nagar Bangalore,,"6th Main, 4th Cross, HRBR Layout, Kalyan Nagar, Bangalore",,,13.0209583,77.6414623
4,Bangalore,192379,Super Collection O by OYO Olive,,"Khata no. 130/100/P, Kogilu, Near Reva University, Bagalur Road Yelahanka, Bangalore",,,13.1113713,77.63560369999999
4,Bangalore,295163,Super Hotel O Yeshwanthpur Formerly Stay Comforts,,"Presently Municipal No 30, (PID No. 3-72-30), 1st Mian Road, Gokul 1st Stage, 4th Phase, Yeshwanthpur, Bangalore",,,13.0229366,77.5567172
4,Bangalore,291112,Hotel O Indian Suites,,"Devasandra Extension, Krishnarajapuram, Bengaluru, Bangalore",,,13.0093664,77.69695329999999
4,Bangalore,17161,Super Hotel O Shree Mookambika Guest House Near Sri Someshwara Swami Temple,,"5th Main K C Mallapa Reddy Layout, Kormangla, Bangalore",,,12.9450235,77.6182355
4,Bangalore,218291,Hotel O by OYO Raj Comforts,,"Gopalappa Layout, Lakkasandra, Lakkasandra Extension, Wilson Garden, Bengaluru, Bangalore",,,12.94225,77.60231
4,Bangalore,760,Super Hotel O Thimmaiah Rd Rajajinagar,,"1st Stage, 5th Phase, West of Chord Road, Thimmaiah Road, Rajajinagar, Shivanagar, Bangalore",,,12.9886292,77.5477809
4,Bangalore,254420,Super Townhouse Hennur Prakruthi Layout Bangalore,,"Plot No. 262, Kempe Gowda Road,Prakruthi Layout, Bangalore",,,13.0401496,77.6347942
4,Bangalore,40507,Hotel O French International,,"53/1-2,2nd Floor, S V Arcade, Off Bannerghatta Road, Thayappa Garden, Ranka Colony, Bilekahalli, Bangalore",,,12.8990958,77.60551819999999
4,Bangalore,330783,Hotel O R R Comforts Boarding and Lodging,,"109/A Vishweshwarapura, Kempalingahalli Cross Kunigal Road, Nelamangala, Bangalore",,,13.0951425,77.3803998
4,Bangalore,354849,Super Hotel O Gayathri Comfort,,"Plot Number 204/2, Airport Road, Venkatala Circle, Kogilu cross, Yelahanka, Bangalore",,,13.102576,77.5999269
4,Bangalore,221043,Townhouse HBR Layout,,"5th Block, HBR Layout, Bangalore",,,13.035593874779284,77.62852748946017
4,Bangalore,225717,Super Townhouse Ramamurthy Nagar West Formerly Phoenix Hotel,,"Horamavu Main Road, Banaswadi Post, Bangalore",,,13.0214055,77.6576399
4,Bangalore,185191,Hotel O Fortune Rooms,,"No 4C-1016 No 4C-1016, GK Arcade, HRBR Layout 1st Block, Dodda Banaswadi, Karnataka , Bangalore",,,13.0174962380202,77.6548589207232
4,Bangalore,304605,Super Townhouse Madiwala Lake Park,,"Plot No 90, BTM Dollar Madiwala Extension, 1st Stage, 4th Cross, Ward No 65, PID No 65-50-90, Bangalore",,,12.91875,77.619167
4,Bangalore,110650,Hotel O Home Exotic Stay Bsk rd Stage,,"Dominos, Outer Ring Road, Katriguppe, Bangalore",,,12.9248885459801,77.5512150116265
4,Bangalore,354724,Townhouse ORR Marathahalli Formerly Krishna Boutique,,"Ground Floor, Outer Ring Road, Munnekolala, Marathahalli, Bangalore",,,12.948406,77.69883530000001
4,Bangalore,194819,Hotel O VSV Avenue Hennur,,"Hennur Main Road, Kacharaknahalli, 5th Cross, Near Krishna Medical Store, Bangalore",,,13.0176081,77.6300392
4,Bangalore,223116,Super Townhouse Muthurayya Swamy Layout,,"Plot Number 236, Near Valmark Apartment, Hulimavu Lake Road, Muthurayya Swamy Layout, Bannergatta Road, Bangalore",,,12.871441577347438,77.6020135390919
4,Bangalore,111484,Hotel O Together,,"Electronics City Phase 2 (east), Bangalore South, Bangalore",,,12.850378,77.681277
4,Bangalore,106116,Hotel O Manyata Deluxe,,"vyalikaval HSBC Layout, Near Manyata Tech park, Nagawara Ac postNear manyata tech park, Nagavara, Bangalore, Bangalore",,,13.0399617,77.6191833
4,Bangalore,41540,Hotel O Koramangala Near Sony Signal,,"Plot Number 7, MM Garden, 6th Block Extension, 80 Feet Road, Koramangala, Opposite Petrol Pump, Bangalore",,,12.94026,77.627074
4,Bangalore,356360,Hotel O V.K Deluxe Rooms,,"Kudlu, AECS Layout A Block, Ambedkar Nagar, Bangalore",,,12.8872056,77.6563094
4,Bangalore,104120,Super Townhouse Hosur Main Road Bommanahalli Near Gopalan Innovation Mall,,"Hosur Main Road, Bommanahalli, Bangalore",,,12.9042125,77.6299527
4,Bangalore,98589,Super Collection O Kalyan Nagar Formerly Prime Square,,"HBR Layout, Kalyan Nagar, Bangalore",,,13.0313745,77.6279191
4,Bangalore,196019,Hotel O I Care with Greenery Comforts,,"K.E.B. Main Road,Old N.H-4,Near Kunchitiga Samudaya Bhavana & Tumkur  University, Tumkur , Bangalore",,,13.3415003,77.1122607
4,Bangalore,206566,Super Collection O Yeshwantpur Formerly Sunder Nivas,,"Plot number 11/23, 1st Main Road, Near Kanteerava Studio, Narasimha Layout, Yeshwantpur, Bangalore",,,13.0220641,77.5340732
4,Bangalore,213733,Collection O by OYO Champion Paradise,,"#86 15th Cross, 15th Main, 2nd Phase, J P Nagar, 15th Cross, 15th Main, 2nd Phase, J P Nagar, Bangalore, India, Bangalore",,,12.9077128,77.5915514
4,Bangalore,234787,Super Collection O Metro Park Opposite Kalasipalya Bus stand,,"Albert Victor Road, Kalasipalyam, Bangalore",,,12.9591911,77.5766288
4,Bangalore,359970,Townhouse Indiranagar Metro Station Bangalore,,"Shri Krishna Temple Road, Stage 1, Indiranagar, Bangalore",,,12.9788704,77.641934
4,Bangalore,45679,Super Hotel O Ashrey Comforts,,"133, Balaji Layout, Manipal County Rd, Singasandra, Electronic City, Bangalore",,,12.872807,77.646054
4,Bangalore,214182,Super Hotel O Srigandhakavalu Formerly Chamundeshwari Lodging,,"Plot Number 297, Chandrashekhar Layout Main Road, Arogya Badavane, Srigandhakavalu, Bangalore",,,12.979751,77.502178
4,Bangalore,223410,Super Townhouse Ecity Inn ,,"No.41, 2nd Cross, Satish Reddy Layout, Electronic City Phase-2, Bengaluru, Bangalore",,,12.84594,77.68131
4,Bangalore,332106,Hotel O Kalpatharu Boarding and Lodging,,"No.22/10 Kasaragatta Grama Sompura Hobli, Nelmangala, Bangalore",,,13.173028,77.261944
4,Bangalore,245135,Super Hotel O by OYO SV LODGE,,"181/7/1A/18A 181/7/1A/18, Apillaganahalli, kembathalli Road, Bangalore",,,12.853253325574771,77.58137220863746
4,Bangalore,262872,Hotel O BNS Comforts,,"No 1325/85, SV PlazaNo 1325/85, SV PlazaSai Baba Temple Road, Venugopal Reddy Layout. Arekerenull, Bangalore",,,12.884309840669154,77.604308276027
4,Bangalore,243559,Super Collection O K R Puram Near Siddhivinayaka Temple,,"First Cross, Medahalli Village, Bidarahalli, Hobli, Hennur Gardens, Bangalore",,,13.024902,77.713682
4,Bangalore,218609,Hotel O SGR Residency,,"No 04, S G R Residency, Railway Parallel Road Gnanabharathi 2nd Stage, Kengeri Satellite Town,, Bangalore",,,12.92328,77.49264
4,Bangalore,15368,Hotel O Midas Casita,,"Rachenahalli, Thanisandra, Yelahanka Zone, Bengaluru, Bangalore East, Bangalore Urban, Karnataka, 560005, India, Bangalore",,,13.059171142536602,77.62744959443808
4,Bangalore,39006,Collection O Madhura Residency,,"City, Bangalore",,,12.953315,77.541867
4,Bangalore,328887,Hotel O Fabulous A/c deluxe rooms,,"30-2/A30-2/A30-2/A 100 feet road Ejipura near ejipura signal viveknagar, Bangalore",,,12.9386135,77.6319972
4,Bangalore,325138,Hotel O SRL Comforts,,"No18CNo.18C, Dodda Basti main road, Near Amma Ashrama Road Junction, Kalyan Co-op housing society, Nagadevenahalli, Kengerinull, Bangalore",,,12.9419638,77.4848553
4,Bangalore,229921,Super Townhouse HSR Layout Formerly Seven Olives,,"57&58, MM Palya, Bommanahalli, Bangalore",,,12.906027,77.632117
4,Bangalore,198542,Capital O Prince Venue,,"Thanisandra Main Road Rachenahalli Manyatha Back Gate No 5 Opposite Road Pnt Layout 4cross, Bangalore",,,13.059873178895327,77.62736527249217
4,Bangalore,355790,Hotel O Janani Boarding & Lodging,,"#8203/16/1 LR complex, Magadi Main Road, Tavarekere Bangalore, Bangalore",,,12.9657934,77.3913162
4,Bangalore,359765,Hotel O SHRI THIRUMALA PARADISE LODGE,,"90 Acharya college road Tammenahalli, Bangalore",,,13.0841979,77.4901539
4,Bangalore,322213,Hotel O Bhattrahalli Lakeview,,"First Cross, Rifco Shantiniketan Layout, Medahalli Village, Hobli, Hennur Gardens, Bangalore",,,13.0249068,77.7136903
4,Bangalore,228043,Super Hotel O Hosur Road Near PES University,,"Beretena Agrahara Village, Begur Hobli, South Taluk, Bangalore",,,12.86436,77.65921
4,Bangalore,110273,Hotel O Leva Homes Near Baiyappanahalli Metro Station,,"Dooravaninagar, Vijnanapura Ward, Mahadevapura Zone, Bangalore",,,13.0117693,77.6663234
4,Bangalore,236001,Super Collection O by OYO Airport Inn,,"181/2/14181/2/14Chidanadareddy Layout, Kattigenahalli, Bagaluru Main Roadnull, Bangalore",,,13.1238553,77.6236071
4,Bangalore,101162,Super Collection O Sri Sai Palace,,"I Stage, Chord Rd, 5th Phase, RajajinagarNear Dhobi Ghat junction, Rajajinagar, Bangalore, Bangalore",,,12.9871009814063,77.5494729168713
4,Bangalore,332095,Super Townhouse Koramangala Road Complex Formerly Parkash Tower,,"Hosur Main Road, Chikku Lakshmaiah Layout, Adugodi, Bangalore",,,12.9353611,77.6090833
4,Bangalore,218385,Hotel O PREETHI BOARDING & LODGING,,"No 381/181/3 , Kallubalu gram panchayat, No 381/181/3, Kallubalu gram panchayat, Harapanahalli, Jigani main road, Anekal taluknull, Bangalore",,,12.78906,77.62811
4,Bangalore,17147,Hotel O PMR Hotel,,"Near Hope Farm Signal, I T P L Main Road, Whitefield, Near Thallasary Restaurant, Prasanth Layout, Bangalore",,,12.98433,77.74908
4,Bangalore,18616,Super Hotel O Aaira Inn,,"3rd Cross, Subrna Paliya, Dodda Banaswadi Main Rd, Bengaluru, Bangalore",,,13.008931184202373,77.64261184751236
4,Bangalore,302314,Hotel O Aqua Comforts,,"138/118/1138/118/1Hosur Bande, Kannur Panchayat, Bangalore",,,13.1059039,77.660809
805,Bankura,88140,Hotel O by OYO Maa Laxmi Lodge,,"Bus Stand Thek, Bankura.Near Bara, Kalitola Road, Bankura, Bankura",,,23.231267,87.078385
190,Bareilly,8443,Super Collection O Prabhat Nagar Bareilly,,"Area Prabhat Nagar, Near Railway Crossing, Opposite Kotak Mahindra Bank, Bareilly",,,28.3777367,79.4246835
190,Bareilly,75138,Super Collection O Civil Lines Near Old Bus Stand Formerly Imperial,,"Civil Lines, Near Old Roadways, Bareilly",,,28.358028,79.418194
190,Bareilly,295664,Super Hotel O Bareilly Near Satellite Bus Stand,,"House No. 5, Khurram Gautia Road, Lsaiyon Ki Puliya, Bareilly",,,28.3514722,79.4344444
190,Bareilly,332250,Super Hotel O Civil lines Bareilly Formerly Neelam Inn,,"Near Goverment Hospital, Kamal Krishna Kunj, Bareilly",,,28.3526111,79.4336944
190,Bareilly,302488,Palette Hotel and Resort Bareilly Formerly Bellazio Suites,,"Bisalpur Road, Bellazio Suites And Resort, Navadiya Jhada, Bareilly",,,28.357711,79.489433
190,Bareilly,240069,Hotel O by OYO Indian Hotel,,"Plot No. 010Nakatiya Mohanpur, Near RTO Office, Shahjahanpur Road, Bareilly, Bareilly",,,28.32675,79.4638056
190,Bareilly,353895,Hotel O The Pacific Farm and Resort,,"Plot no 115 Kamua Kala, Opposite Lal Bahadur Shastri college Plot no 115 Kamua Kala, Opposite Lal Bahadur Shastri college  Bisalpur Road Bareillynull, Bareilly",,,28.3393041,79.5556713
190,Bareilly,359176,Hotel O JP Prime Inn,,"Anees Tower 1st Floor Near Old Roadways Bareilly college Near Imperial Mall Cineplex, Bareilly",,,28.357995,79.4178669
190,Bareilly,90241,Hotel O Dhruv Inn,,"Deen dayal puram Above r s surgicals Behind lic division office Bareilly, Bareilly",,,28.3814167,79.4298611
190,Bareilly,298026,Hotel O by OYO AB Rooms,,"145  145 Civil Lines Near circuit house chauraha SSP Office Roadnull, Bareilly",,,28.3436061,79.4205851
190,Bareilly,307618,Super Hotel O Bareilly Gandhi Udhyan Park,,"Near Old Roadways, Civil Lines, Bareilly",,,28.357949,79.418158
190,Bareilly,307691,Hotel O Passport Office Bareilly,,"Opposite Kotak Mahindra Bank, Area Prabhat Nagar, Near Railway Crossing, Bareilly",,,28.3777467,79.4246935
190,Bareilly,307957,Collection O Bareilly Akshar Vihar Park,,"Lsaiyon Ki Puliya, Khurram Gautia Road, Bareilly",,,28.351432,79.434429
4806,Barmer,354006,Hotel O Raj Palace Hotel & Restaurant,,"Station road , Barmer, Barmer",,,25.7458343,71.3956883
4806,Barmer,241492,Hotel O Valley View Club & Resort,,"Plot no 01, near Nakoda ji gate, Nakoda ji Tirth road, Himmada, Balotra, Barmer",,,25.80041456,72.17988942
114,Bathinda,50704,Hotel O Uman G.g.,,"MCB no 08809, Near fouji  chowk, Bathinda Near fouji chowk, Bathinda",,,30.210025,74.9447841
114,Bathinda,59129,Collection O by OYO Mall Road Bathinda Formerly Hotel Galaxy,,"Plot No. 2, Opposite J&K Bank, Street Nand Juice Corner, Gol Diggi, Mall Road, Bathinda",,,30.212702,74.936092
397,Behrampur,204509,Hotel O Mo Kudia,,"New Bus Stand Road, Baikuntha Nagar, Behrampur",,,19.3153056,84.7991944
397,Behrampur,49664,Hotel O Nirmalya Plaza,,"Nh45, Haldiapadar, Near New Bus Stand, Opposite To Iskon Temple, Behrampur",,,19.2688302,84.777409
397,Behrampur,358785,Hotel O Moonland,,"1A 1A Andhapasara main road, near Hanuman temple, Near Sisirbha bajaj service stationnull, Behrampur",,,19.2936618,84.7818207
397,Behrampur,53420,Collection O Mahatma Gandhi Stadium Odisha Formerly Hotel Nirmalya,,"Near KTM showroom, Nilakantheswar Nagar, Behrampur",,,19.305872280814615,84.78175563811259
233,Belgaum,359471,OYO 843570 Luxury lodge,,"Maruti Nagar  sambra airport road belgavi Maruti Nagar  sambra airport road belgavi  Maruti Nagar podar international school  , Belgaum",,,15.8582632,74.5380077
485,Berhampore,351751,Hotel O by OYO Sampad,,"85 AC road, Indraprastha, Berhampore, Berhampore",,,24.1055283,88.2565783
485,Berhampore,318939,Hotel O New Taj,,"Plot No - LR 86/RS 19, 127/33, PO - Khagra Maharaja Nandan Kumar Road, Saidabad, Murshidabad, Berhampore",,,24.1310589,88.2541354
485,Berhampore,327548,SPOT ON The Green Palace,,"Murshidabad-Jiaganj, Talgachi, Lalbagh, Murshidabad, Berhampore",,,24.1545625,88.2690625
485,Berhampore,357503,Spot On Niribili Guest House,,"Dak No - 519 Khatiyan No - 43 PS & PO - Murshidabad  Siraj Ud Doullah Rd, Hazarduari, Murshidabad, West Bengal , Berhampore",,,24.1828847,88.2742645
485,Berhampore,249177,Super Hotel O ALO Hotel,,"1, Belepukur Bus stand, Sagardighi, Berhampore",,,24.324822,88.02568
485,Berhampore,87990,Hotel O by OYO New Heaven,,"01 Moti Jhil Bypass road, Kabil pur, Near Motijhil and Indian Oil Petrol Pump, Lalbagh, Murshidabad 742149, Berhampore",,,24.169374,88.2714139
485,Berhampore,355549,Hotel O Apex Hotel ,,"27 KN Road, Near Berhampore Bus Stand, Ranibagan, Berhampore",,,24.0984681,88.2567375
485,Berhampore,87991,Hotel O New Heaven,,"01 Murshidabad Railway Station Road, Near Murshidabad Station and Hazarduari, Lalbagh,  Berhampore, Murshidabad, Berhampore",,,24.1765195,88.2805447
485,Berhampore,211028,OYO 812702 Mango Leaf Hotel & Restaurant,,"TATA showroom, Mehedipore Bus Stop TATA showroom, Mehedipore Bus Stop  TATA showroom, Near Mehedipore Bus Stop, Berhampore Bypass Road, Berhampore, Murshidabadnullnull, Berhampore",,,24.123148521586828,88.21956699491169
485,Berhampore,220971,Hotel O Mohona Residency & Restaurant,,"NH - 34, Basudevpur Bus Standnull, Berhampore",,,24.6349444,87.9825833
428,Bhagalpur,173232,Hotel O Shree hotels,,"Sabour, NH 80, BHAGALPUR, Bhagalpur",,,25.2401475,87.0472426
428,Bhagalpur,163846,Hotel O Eleven,,"Opp of Koyla Depot road,Bhikhanpur, Bhagalpur",,,25.243091,86.976771
428,Bhagalpur,49000,Super Hotel O Bhagalpur Railway Junction,,"Ward no 13, Plot no 207, 208 & 209, Mohalla Sujaganj, Patal Babu Road, Bhagalpur",,,25.2423333,86.9745
428,Bhagalpur,324590,Super Hotel O Bhagalpur Railway Station Formerly Peepal Tree,,"Plot No. 1198 Near English Graveyard, PARBATTI, Lower Nathnagar Road, Bhagalpur",,,25.240369,86.958876
428,Bhagalpur,253216,Hotel O Royal Heritage Resort,,"Plot No-276, Plot No-276, Glocal Hospital to Sabour Road, Near holy family school, Gopalpur, Bhagalpur",,,25.2416884,87.0221139
462,Bharatpur,94527,SPOT ON Hotel pratap plaza,,"Above HDFC Bank, Kotwali Bazaar, Bharatpur, Bharatpur",,,27.2169527,77.4876218
462,Bharatpur,196722,OYO 703555 Hotel Holiday,,"Golpura circle  Golpura circle  Golpura circle  Golpura circle  Near Military board 331, Sewar Mathura bypassnullnull, Bharatpur",,,27.2105875,77.4588545
126,Bharuch,45150,Super Townhouse Bharuch Near Railway Station Formerly Hotel Kohinoor,,"Hilton Plaza, Opposite Railway Station, Bharuch",,,21.7025663,72.9985363
126,Bharuch,306784,[Day Stay - 12 Hrs Slot : 8 AM to 8 PM] Townhouse Golden Bridge Bharuch,,"Opposite Railway Station, Bharuch",,,21.702529,72.998376
244,Bhilai,188261,Townhouse Durg Near Railway Station,,"Dhamdha Road, Opp. Durg Railway Station, Near Flyover Bridge, Kailash Nagar, Bhilai",,,21.2025,81.2898333
244,Bhilai,207133,Hotel O The Cloud,,"57/4B, Akash Ganga, Near railway crossingnull, Bhilai",,,21.2047136,81.3503919
244,Bhilai,321115,Super HOTEL O NIRVANA Bhilai Nagar Station,,"plot no 104 Junwani Road, Durga Nagar, Kohka Housing Board, Bhilai",,,21.2178395,81.331745
244,Bhilai,351793,Hotel O Kant,,"120 , sikola basti ,durg Dhamdha road near milan marriage palace, Bhilai",,,21.214967087859144,81.29460512122725
244,Bhilai,361308,SPOT ON Hotel Galaxy Prime,,"Plot no.-1, Bhilai 3, Street- 1, umda road, Nearby landmark- opposite Osho Iawnn, Bhilai",,,21.2223739,81.4326183
144,Bhilwara,78280,Capital O by OYO Amit Palace,,"Near Sukhadiya Circle, Ajmer Road, Subhash Nagar, Bhilwara",,,25.371343,74.625595
66,Bhiwadi,114916,OYO Radhe Hotel,,"Dharuhera Bhiwadi Road Opposite Ss Hospital And Behind Sharma Furniture, 4, Sohna Rd, Bhagat Singh Colony, U.i.t, Dharuhera, Bhiwadi Road Behind Sharma Furniture, Opposites Nagina Garden And Ss Hospital, Bhiwadi",,,28.20993309102061,76.81292960420251
66,Bhiwadi,208055,Super Collection O Bhiwadi,,"85-86, Near Laxmi Dharam Kanta, Phase-3 RIICO Industrial Area, Near Capital Mall, Bhiwadi",,,28.2036468,76.8534891
66,Bhiwadi,226553,Hotel O S.S,,"3612 Dharuhera, Behind Police station, NH48, Dharuhera District Rewari, Bhiwadi",,,28.202389,76.842611
1773,Bhiwani,356357,Hotel O DH,,"Kadam hospital,New bus stand .Bhiwani , Bhiwani",,,28.794813,76.15744
1773,Bhiwani,209850,Hotel O Panchtara,,"State Highway 17, Bhiwani",,,28.8031668,76.1341282
28,Bhopal,44094,Super Townhouse Hoshangabad Road Near Aashima Mall,,"Shriram Colony, Hoshangabad Road, Bhopal",,,23.1723365,77.458608
28,Bhopal,173516,Hotel O Bonsai,,"DK3-1/27, Danish Kunj, Kolar Rad, Bhopal., Bhopal",,,23.17143,77.42311
28,Bhopal,35976,Super Collection O Ayodhya Ring Road Bhopal,,"Narela Shankari, Opposite SBI Bank, Huzur, Bhopal",,,23.2644185,77.4651262
28,Bhopal,197430,Super Collection O Shahpura Lakeview Formerly Hotel Royal Villa,,"Near Of Manoria Hospital, Kolar Road, Chuna Bhatti, Bhopal",,,23.2018347,77.4169111
28,Bhopal,238285,OYO 825082 Hotel shiv Shakti,,"96-97, j k town, near j k hospital Kolar Road bhopal, Bhopal",,,23.1782532,77.4247824
28,Bhopal,2918,Super Townhouse Gandhi Medical College Bhopal Formerly Hotel Shagun,,"Ward No. 21, Hawa Mahal, Huzur, Bhopal",,,23.25914,77.396825
28,Bhopal,354155,SPOT ON Hotel Mahek inn,,"Bhopal railway station opp platform no 01 sikandari saraye, Bhopal",,,23.2657312,77.4140443
28,Bhopal,114653,Super Collection O Bairagarh Railway Station Formerly Hotel OM Palace,,"  Sehore Naka, Bairagarh Near Railway Station, Bhopal",,,23.2702952,77.3318887
28,Bhopal,35397,Hotel O Shri Vilas,,"Near Bansal Hospital, Sector C, Shahpura, Bhopal",,,23.1976261,77.4187661
28,Bhopal,225228,Hotel O Swastik,,"Plot No. Lig-86, Nehru Nagar, Near MANIT college, Bhopal",,,23.2101462,77.3962304
28,Bhopal,248398,Hotel O Shivay Inn Ayodhaya Bypass Road,,"Plot No. 87  chatrapati nagar narela shankari near indrapuri road narela jod ayodhya bypass near Indian bhopal, Bhopal",,,23.2694408,77.4674304
28,Bhopal,326856,OYO 838884 Hotel Arush In,,"Plot No E8/09 clock number 1 Trilanga road near aura mall Gulmoharnull, Bhopal",,,2.27557,102.248783
28,Bhopal,48627,Super HOTEL GUD STAY,,"Behind Patidar Studio, Zone 2, Mp Nagar, Bhopal",,,23.231472,77.434306
28,Bhopal,352215,Super Collection O Azad Nagar Ayodhya Bypass Road Bhopal Formerly Hotel Inbox,,"78/8, 79/1 and 75b, Azad Nagar, Gram Hatai Kheda, Tehsil Huzur Near Hanuman Mandir, Ayodhya Bypass, Bhopal",,,23.25725,77.47803
28,Bhopal,349000,Hotel O by OYO Sindhu Palace,,"plot no 7 Kahna kunj  dr Shyama Prasad stadium banjari Kolar road  plot no 7 Kahna kunj  dr Shyama Prasad stadium banjari Kolar road  Kolar Road, Bhopal",,,23.1769257,77.41640629999999
28,Bhopal,183068,Collection O Rani Kamlapati Railway Station Formerly Silkroute Palace,,"Arera Colony, Opposite Habibganj Police Station, Habibganj, Bhopal",,,23.2175556,77.4277778
28,Bhopal,357516,Hotel O Jay-3,,"Plot no -70  Patidar chouraha, sardar vallabh bhai patel awasiya yojana, salaiya, misroad, Near akriti green, Bhopal",,,23.1643348,77.4509578
28,Bhopal,109616,Collection O by OYO Gauri Shree Hotel,,"Chittod Complex, Mp Nagar Zone-1, Near By Idfc First Bank, Bhopal",,,23.2367965,77.4347428
28,Bhopal,46823,Super Collection O MP Nagar,,"BMP Nagar, Zone 1, Bhopal",,,23.233595,77.43328
28,Bhopal,40090,Super Hotel O MP Nagar Near Rachna Tower,,"Easy Stay, Near Rachna Tower, Rachna Nagar, Bhopal",,,23.2417658,77.4371295
28,Bhopal,248124,Hotel O by OYO Chouksey Farmstead,,"Khasra No 318/3Samardha Village, Bhopal",,,23.122453,77.502225
28,Bhopal,250703,Hotel O Neelbad Guest House,,"Plot No.5 Krishna colony, kalkheda road Neelbad, Near asian hospital, Bhopal",,,23.191422072028235,77.33818098375443
28,Bhopal,44373,Hotel O Midtown,,"1, Behind Priyadarshini Market, Rangmahal Talkies, T T NagarNear Rangmahal Talkies, T.T Nagar, BhopalNear Rangmahal Talkies, T.T Nagar, Bhopal, Bhopal",,,23.235556,77.39763
28,Bhopal,246127,Super Hotel O Golden Pearl,,"268/DK-5, DANISH KUNJ, KOLAR ROAD, Bhopal",,,23.1712174,77.4295603
28,Bhopal,237586,Hotel O Mav Hotel,,"DK -2, 410/28 danish kunj Kolar road , Bhopal",,,23.1722235,77.4228846
28,Bhopal,218961,Hotel O by OYO The Angel Palace,,"Plot no. B 167 sector A, J K Town,Kolar road bhopal, Near J K Hospital, Bhopal, Bhopal",,,23.1788021,77.4260699
28,Bhopal,111885,Hotel O New Mansa,,"plot no 1  Sundar Nagar Colony, Huzur Tahsir Bhopal Ashoka Garden Opposit Sagar GaireAshoka Garden Opposit Sagar Gaire BhopalAshoka Garden Opposit Sagar Gaire Bhopal, Bhopal",,,23.2576803,77.4304001
28,Bhopal,49718,Hotel O Aura Mall Bhopal Formerly Golden Star,,"Near Aura Mall, Trilanga, Bhopal",,,23.1900666,77.4288028
28,Bhopal,255939,Hotel O by OYO York Residency,,"Plot no.- 18, D Block, Aerocity Road, Bhopal, Bhopal, Pincode- 462036, Landmark- Near Rajabhoj International Airport, Bhopal",,,23.30933916,77.34230932
28,Bhopal,9762,Hotel O Mohit Regency,,"Near Punjab & Sindh Bank, Zone-II, M P Nagar, Bhopal",,,23.227657,77.436993
28,Bhopal,196059,Hotel O Aman Palace ,,"plot no E-20 mayur vihar  mayur vihar, 80 Feet Rd, Ashoka Gardennull, Bhopal",,,23.2625491,77.4272504
28,Bhopal,60037,Hotel O by OYO Parth Palace,,"S K Plaza buliding 2nd floor  In Front Of Bank Of Baroda, Near Bima Kunj, Kolar RoadNear Bima Kunj, Kolar Road, Bhopal, Bhopal",,,23.1788689,77.4175441
28,Bhopal,325699,Super Hotel O by OYO Sanjay Karond Charaha,,"karond chauraha, berasia road, karond, Bhopal",,,23.3017282,77.4043794
28,Bhopal,302598,Hotel O P2 ,,"plot no 1, near Spandan hospital, sector B, data colony Indra Vihar Colony, Tilak Nagar, Bhopal",,,23.2806389,77.3562029
28,Bhopal,330379,Hotel O by OYO Maa Ganga's,,"plot no 84 Kasturba nagar  under Chetak bridge, near ISBT , Bhopal",,,23.234153604474038,77.44069239408627
28,Bhopal,108940,Hotel O Saket inn,," plot no 5, Saket Nagar Main Rd, near DRM Road, Habibganj, Bhopal",,,23.2167646,77.4578003
28,Bhopal,359578,Hotel O P P Palm Retreat ,,"plot 05 Bhadbhada Road Behind HP Petrol Pump Near Mayuri Marriage Garden Near Sakshi Dhaba Neelbad Bhopal MP, Bhopal",,,23.2057783,77.3653059
28,Bhopal,277286,Hotel O Dwarka Hotel And Restaurant,,"plot no 1, Dwarka the dhaba and restaurant  Katara Hill Bypass road near sage university, Bhopal",,,23.1758632,77.5114396
28,Bhopal,101124,Hotel O by OYO CROWN PACIFIC,,"44, Sector 3 B, Shakti Nagar, Habib ganj, Near AIIMS, Saket Nagar, BhopalNear AIIMS, Saket Nagar, Bhopal, Bhopal",,,23.2192089,77.4582461
28,Bhopal,330461,Hotel O by OYO The Diamond Palace,,"House No -87, Sector- A Banjari colony, near Hanumanji mandir, Bhopal",,,23.178528,77.416583
28,Bhopal,241418, THE O Ganesha Oasis Hotel,,"DK 2/179Kolar Road, Bajrangi Colony, Danish Kunj Kolar bhopal, Bhopal",,,23.1728062,77.4230386
28,Bhopal,226949,Hotel O Shyam Paradise ,,"sector c/207, Shahpura near Bansal hospital  opposite Sai mandir , Bhopal",,,23.1984206,77.4192987
28,Bhopal,199358,Hotel O The Panni’s,,"Shanti Nath Plaza,Top of deva Market, Infront of SBI ATM, Nadra bus stand,Near Bhopal Junction Railway Station, Bhopal",,,23.26526428,77.40443564
28,Bhopal,219612,Hotel O Sawariya Regency,,"Plot no 1 chandbad infront of Durga mandir  Plot no 1 chandbad infront of Durga mandir  Plot no 1, chandbad Infront of Durga mandir, Ashoka Garden, Near main railway stationnull, Bhopal",,,23.266681547986515,77.42012472463728
28,Bhopal,329161,Hotel O Parampara Garden Resort,,"Dastoor Farms- Campus, Sikandrabad Road, Kalkheda,, Bhopal",,,23.17767,77.3173768
28,Bhopal,327224,Hotel O by OYO the ocean waves,,"plot no 1 Nishantpura railway station, satya gyan colony, Bhopal",,,23.2822779,77.4180252
28,Bhopal,37851,Super Hotel O by OYO Smart City,,"plot no 01 80 Feet Road, New Ashoka Garden, Near Bhopal Station, Bhopal",,,23.2615646,77.4286264
28,Bhopal,204478,Hotel O The Shaan Inn,,"Plot no. 69 Jyoti Nagar  Narmadapuram Rd, behind Miracles hospital, Jyoti Nagar, Danish Nagar, Bagmugaliya, Bhopal",,,23.1844101,77.4624915
28,Bhopal,44193,OYO Hotel O Palak,,"Punjabi Bagh, Infront Of Apsara Talkies, Ashoka Garden, Raisen RdNear Apsara Talkies, Raisen Road, Bhopal, Bhopal",,,23.2538666,77.4358177
28,Bhopal,300915,Hotel O by OYO Shri Balaji Hotal And Restaurant Branch - 2,,"S-10New jail road, Gokul dham, abbas nagar, gandhi nagar Bhopal, Bhopal",,,23.307018,77.3718177
28,Bhopal,97368,Hotel O sunshine regency,,"B 87, Kasturba Nagar, Near Chetak Bridge, MP Nagar, Bhopal, Bhopal",,,23.234138,77.4407047
28,Bhopal,221225,Hotel O Prathma,,"114, Amrai Parisar Beside NRI Global Discovery School, Behind AIIMS , Bhopal",,,23.2000026,77.4629688
28,Bhopal,304036,Hotel O by OYO The Shark Palace,,"Indra vihar, data colony, airport road, Lalghati, Bhopal",,,23.2805713,77.3536758
28,Bhopal,107303,Hotel O Hotel G Star,,"plot no 03 Trilanga Chouraha,Near Aura Mall, Trilanga Colony Near Aura Mall Trilanga Colony, Bhopal",,,23.1940218,77.4331495
28,Bhopal,322386,Hotel O Iskcon Temple Bhopal Formerly The Jackfruit Resort,,"Plot No. A 135, New RTO Office, Bypass Road, Bhopal",,,23.267455,77.514324
28,Bhopal,184356,Hotel O by OYO J-SONS,,"E-3, Plot No 296Arera Colony, 10 number market, near gestocare hospital, Opposite Arya Samaj Mandir, Bhapal, , Bhopal",,,23.2132276,77.4370133
28,Bhopal,223001,Hotel O The Shloka,,"House no 192 Mandakini colony Mandakini colony Kolar road, Bhopal",,,23.1846202,77.4188388
28,Bhopal,292911,Hotel O by OYO queen hotel & restaurant,,"Plot no.- 01, Kahjuri Sadak, Bhopal, Huzur, Pincode- 462030, Nearby Landmark- Near Rajwada Dhaba, Bhopal",,,23.2486986,77.2623448
28,Bhopal,229687,Hotel O Regal Park ,,"Lig- 39, Amrai Parisar, Bagsewaniya, Behind AIIMS Hospital, Bhopal Lig- 39, Amrai Parisar, Bagsewaniya, Behind AIIMS Hospital, Bhopal LIG 39 Amrai Saket Nagar near AIIMS Hospita, Bhopal",,,23.1995342,77.4609609
28,Bhopal,177322,Hotel O SSG,,"3/2c, Saket nagar, Near A I I M S Near Kamlapati railway station, Bhopal",,,23.2155867,77.4599143
28,Bhopal,106226,Hotel O A Square ,,"Plot No.100-101,  Rohit Nagar, Bawadiya Kalan, Near Shahpura Thana, TrilangaRohit Nagar Near extol college Near Shahpura Thana Bhopal, Bhopal",,,23.1816039,77.4318846
28,Bhopal,45049,HOTEL O  ADITYA REGENCY,,"Plot No - 1, dharam kanta , chola road ,near nadra bus stand , Near Railway station jn, chhola road, dharamkanta, Bhopal, Bhopal",,,23.2684638,77.4096638
28,Bhopal,189767,Hotel O Convivial Ark,,"Plot No 9 Ward No 84 Police Housing Society Gehunkheda in front of D Mart Kolar Road, Bhopal",,,23.156501,77.414384
28,Bhopal,332885,Hotel O by OYO THE 9 CUBE,,"Plot no-1, Rohit Nagar face 1, Janki hospital, Bhopal",,,23.1804777,77.439188
28,Bhopal,217547,Hotel O Ocean Pearl,,"D-350Narmadapuram Road, Danish Nagar Bhopal, Bhopal",,,23.1876553,77.4616219
28,Bhopal,207430,Hotel O by OYO GULMOHAR GRAND,,"Savoy Complex Gulmohar G 3 Near Sheel Public School, Bhopal",,,23.191746,77.4395695
28,Bhopal,196788,Hotel O Convivial Classic,,"Flot no 101 Raisen Rd, Kalpana Nagarnear Shani Dev Mandir, Kalpana Nagar, Bhopal, Bhopal",,,23.2510151,77.4767761
28,Bhopal,359481,Hotel O Atithi ,,"Plot No- 142 ,Durgesh Vihar colony , JK Road, Minal residency road ., Bhopal",,,23.2674596,77.4606353
28,Bhopal,352218,Hotel O Lala Ji ,,"plot no 2 and 4 sukhi railway station imaliya raisen road bay pass Bhopal, Bhopal",,,23.32960484,77.48260523
28,Bhopal,228358,Hotel O by OYO Jagdamba Hotel,,"Ashoka Garden Hinotiya, Near Sai Baba Mandir Bhopal, Bhopal",,,23.2646758,77.4237923
28,Bhopal,208481,Palette - Hotel Saket Greens,,"Patel Nagar Raisen Road, Bhopal",,,23.24926279,77.49508898
28,Bhopal,176258,Hotel O by OYO Amulya shri,,"plot no-1, mp nagar zone -1 behind manohar dairy bhopal, Bhopal",,,23.234808,77.434589
28,Bhopal,86129,Hotel O Saavi International,,"plot no 112A  Behind Patidar studio, MP Nagar, Zone 2 Bhopal Behind Patidar studio, MP Nagar, Zone 2 Bhopal, Bhopal",,,23.2387295,77.4391509
28,Bhopal,329661,OYO 839535 Hotel Shri Vinayak,,"106106 J.K Town Road, infront of western courtyard, Bhopal",,,23.1246919,77.4128193
28,Bhopal,361979,Hotel O ZOYO INN,,"MIG-8, Sumitra Parisar phase 1 , 80 feet road , Rajharsh colony Kolar , Bhopal",,,23.1591012,77.4290292
28,Bhopal,18504,Hotel O by OYO Csfc,,"Plot 30, Medicine St, Opp. Juneja Tyer, Behind bata showroom, patel market, ghora nakkas, Bhopal",,,23.2653858,77.4030209
28,Bhopal,223902,Hotel O A-Kay,,"plot no 92  JK town new ballabh nagar Near JK hospital sarvdharam Kolar road , Bhopal",,,23.17822,77.4249306
28,Bhopal,300763,Hotel O Purani Haveli ,,"Plot no. 5 BPipaliya jod, Khamla Khedi, Khajuri Sadak, near I Love Khajuri Sadak board, Bhopal - Indore Highway, SH28, 462030, Bhopal",,,23.2403056,77.2383889
28,Bhopal,328223,Hotel O The Kavish,,"D- 74 sardar vallabh bhai patel phase -2, BDA colony, salaiya, Bhopal",,,23.1637388,77.4509087
28,Bhopal,229345,Hotel O Shree Balaji Hotel And Restaurant,,"Shubh Business Zone, Near Dental Hospital, People Campus, Bhopal",,,23.3026736,77.4233936
28,Bhopal,42936,OYO Hotel Krishnayan,,"plot no 1  Gehukheda  good Shepherd Colony Rd, Shirdipuram, Kolar Road, Bhopal, Madhya PradeshGood Shepherd Colony Rd, Shirdipuram, Kolar Road, Gehun Kheda, Madhya Pradesh 462042, India Bhopa bhopal madhya pradesh india bhopal, Bhopal",,,23.1752311,77.421008
28,Bhopal,353782,SPOT ON Hotal Saawariya Place ,,"Nathu Barkheda Road, Neelbal, Bhopal",,,23.2075112,77.3311366
28,Bhopal,216282,Hotel O 815596 Hotel Sambodhi Palace,,"New Central Jail, Bhopal",,,23.293833,77.357917
28,Bhopal,245793,Hotel O MAZENTA PALACE,,"Plot n. 08 Anjali vihar phase 2, bagsewaniya bagmugaliya, near krisna arcade, Bhopal",,,23.1918611,77.4647222
28,Bhopal,48628,Hotel O by OYO Savitri Regency,,"Harshwardhan Nagar, Near Mata Mandir, New Market, Bhopal",,,23.2230229,77.40743879
28,Bhopal,262832,Hotel O by OYO Landmark,,"Plot no.- 184 & 185, Sudama nagar, Aradhna Nagar, TT Nagar, Bhopal",,,23.22097370289163,77.39713985529792
28,Bhopal,326892,Hotel O by OYO Royal Inn Home Stay,,"Plot no. 3B, Infront of Sanskar Garden, Near Mittal College Karond, Bhopal",,,23.3099873,77.4159368
28,Bhopal,219347,Super Hotel O Crown Square,,"Plot no.31 harshita tower near kuber dairy bagsewaniya bhopal, Bhopal",,,23.1940213,77.4641167
28,Bhopal,5656,Hotel O Ganpati,,"256, No.256  Zone-2, Habibganj Road, Near Sargam Cinema, Maharana Pratap Nagar, Bhopal",,,23.226127,77.4364883
28,Bhopal,107576,Hotel O StayCraft,,"E-8, Behind Marutinandan Complex, Gulmohar Area, Near Shahpura Thana ,Behind Marutinandan complex, Gulmohar area, Near Shahpura thana, front of nakoda cafe , Bhopal",,,23.1866253,77.4340056
28,Bhopal,356500,Hotel O Trishas HomeStay,,"plot no 33, prime avenue  in front of sage international school, danish Kunj kolar, Bhopal",,,23.1631566,77.4301188
28,Bhopal,229300,Hotel O by OYO Madhuram Residency,,"04Plot - 04 311 Opp. To BMHRC near by Mittal institute of technology karond, Bhopal",,,23.309096706008653,77.41665748127123
28,Bhopal,352681,OYO Hotel O Shiv Shree,,"Vill. Mungaliya Hat, Post Mungaliya Hat, Huzur, Near Indian Oil Petrol Pump, Bhopal Madhya Pradesh , Bhopal",,,23.3471111,77.2593056
28,Bhopal,74793,Hotel O Yuvan,,"Danish nagar, Hoshangabad Road, Bhopal",,,23.186709,77.459543
28,Bhopal,112272,Hotel O by OYO New Om Palace,,"2nd Floor, Hamidia Rd, Patel Market, Ghora Nakkas, Rahmat MarketNear Nadra Bus stand , Jumerati , Ibrahimpura , Bhopal, Bhopal",,,23.264558,77.4040963
28,Bhopal,19101,Hotel O by OYO Radhika Palace,,"A-353, Sarvdharam B_ sector . Behind Vishal megamart , Kolar road, Bhopal",,,23.1874883,77.4179461
28,Bhopal,219459,Palette Patel Nagar,,"Raisen Road, Manak Vihar, Patel Nagar, Bhopal",,,23.2513466,77.5024589
28,Bhopal,263350,"Palette Hotel Nisarga, Bhopal",," Maharana Pratap Nagar, Bhopal, Madhya Pradesh, Bhopal",,,23.234958752612535,77.43247749444647
28,Bhopal,306541,Townhouse Oak Bhopal Aashima Mall,,"Shriram colony, Hoshangabad Road, Bhopal",,,23.172359,77.458679
28,Bhopal,308105,Collection O Bhopal DB City Mall,,"Easy Stay, Near Rachna Tower, Rachna Nagar, Bhopal, Bhopal",,,23.2417658,77.4371295
28,Bhopal,317195,Townhouse Oak Bhopal ISKCON,,"Manak Vihar, Raisen Road, Patel Nagar, Bhopal",,,23.251269,77.50244
28,Bhopal,317215,Hotel O Bhopal DB City Mall,,"Near Aadhar Seva Kendra, Zone 1, BMP Nagar, Bhopal",,,23.2336017,77.4332889
87,Bhubaneswar,329663,Super Hotel O Kesora Square Bhubaneswar Formerly Moody Moon,,"Plot No. 1994, Kesora Square, Near Mangaraj Point, Bhubaneswar",,,20.2765833,85.8739722
87,Bhubaneswar,112238,Super Hotel O Swaranpuri Near KIIT Square,,"Khata No. 474/53, Patia, Chandrasekharpur, Bhubaneswar",,,20.351808,85.822907
87,Bhubaneswar,37525,Collection O ITER Bhubaneswar Formerly Regal Stays,,"ITER College Road, Lane 6, Jagmohan Nagar, Khandagiri, Near ITER College, Bhubaneswar",,,20.251058,85.7997115
87,Bhubaneswar,308211,[Day Stay - 12 Hrs Slot : 8 AM to 8 PM] Collection O Dumduma Institute of Technical Education & Research,,"Dumduma, Near PDN Cricket Ground, Bhubaneswar",,,20.250399,85.7942418
87,Bhubaneswar,355723,HOTEL O KASHIKKAA PREMIUM ,,"Plot no-6/1939/4627/9218 Neat Infocity Sai temple, Patia, Bhubaneswar",,,20.3375589,85.8052313
87,Bhubaneswar,259464,Super Townhouse Mancheswar Industrial Estate,,"Sector A, Mancheswar Industrial Estate, Bhubaneswar",,,20.2972979,85.852682
87,Bhubaneswar,357262,Hotel O Daysinn Premium ,,"Plot-12/57 Soubhagya Nagar, Infront of Bharat Petrol pump, Bhubaneswar",,,20.2681131,85.8022124
87,Bhubaneswar,59026,Super Hotel O Indira Park Road Bhubaneswar,,"Plot Number A7/5, Indira Housing Colony, Lingipur, Bhubaneswar",,,20.2181102,85.8473023
87,Bhubaneswar,263214,Super Hotel O Khandagiri Near DN Regalia Mall,,"BIjipur, Khandagiri, Bhubaneswar,Odisha, Bhubaneswar",,,20.2366641,85.7505671
